ID;LON;LAT;NAME;CLASS;STATE;ANNUAL;JAN;FEB;MAR;APR;MAY;JUN;JUL;AUG;SEP;OCT;NOV;DEC
6075;-44.717;-23.2229;Paraty;Sede Municipal;RIO DE JANEIRO;4122;5021;5319;4329;3926;3331;3128;3129;3892;3911;4189;4321;4975
6319;-44.3199;-23.0016;Angra dos Reis;Sede Municipal;RIO DE JANEIRO;4334;5356;5642;4638;4245;3482;3228;3255;4017;4031;4402;4552;5156
6322;-44.0413;-22.9599;Mangaratiba;Sede Municipal;RIO DE JANEIRO;4399;5466;5832;4696;4256;3473;3215;3239;4060;4100;4540;4615;5302
6338;-42.0271;-22.9779;Arraial do Cabo;Sede Municipal;RIO DE JANEIRO;5023;6428;6727;5378;4644;3730;3409;3489;4378;4696;5367;5638;6397
6459;-43.7802;-22.8641;Itaguaí;Sede Municipal;RIO DE JANEIRO;4688;5904;6193;5010;4479;3611;3314;3364;4217;4339;4930;5077;5823
6464;-43.201;-22.9139;Rio de Janeiro;Capital Estadual;RIO DE JANEIRO;4732;6041;6221;5062;4358;3590;3350;3341;4203;4435;5106;5143;5928
6465;-43.1037;-22.8837;Niterói;Sede Municipal;RIO DE JANEIRO;4785;6184;6345;5158;4456;3598;3341;3340;4220;4413;5101;5213;6053
6468;-42.825;-22.9359;Maricá;Sede Municipal;RIO DE JANEIRO;4785;6189;6373;5123;4418;3594;3344;3371;4213;4447;5071;5220;6053
6471;-42.5103;-22.9297;Saquarema;Sede Municipal;RIO DE JANEIRO;4764;6183;6443;5110;4436;3591;3367;3377;4173;4394;5049;5121;5932
6473;-42.333;-22.8701;Araruama;Sede Municipal;RIO DE JANEIRO;4860;6268;6473;5247;4518;3652;3394;3425;4257;4518;5155;5296;6115
6476;-42.029;-22.8899;Cabo Frio;Sede Municipal;RIO DE JANEIRO;4921;6359;6498;5252;4526;3695;3362;3428;4301;4614;5291;5475;6248
6597;-43.7159;-22.7531;Seropédica;Sede Municipal;RIO DE JANEIRO;4674;5906;6216;4991;4434;3589;3314;3375;4224;4350;4909;4992;5783
6600;-43.3996;-22.7645;Belford Roxo;Sede Municipal;RIO DE JANEIRO;4615;5848;6049;4899;4321;3585;3336;3325;4174;4353;4909;4925;5658
6600;-43.4237;-22.8061;Nilópolis;Sede Municipal;RIO DE JANEIRO;4615;5848;6049;4899;4321;3585;3336;3325;4174;4353;4909;4925;5658
6600;-43.4607;-22.7561;Nova Iguaçu;Sede Municipal;RIO DE JANEIRO;4615;5848;6049;4899;4321;3585;3336;3325;4174;4353;4909;4925;5658
6600;-43.4604;-22.8033;Mesquita;Sede Municipal;RIO DE JANEIRO;4615;5848;6049;4899;4321;3585;3336;3325;4174;4353;4909;4925;5658
6601;-43.3053;-22.7863;Duque de Caxias;Sede Municipal;RIO DE JANEIRO;4693;5954;6136;5017;4363;3618;3384;3372;4226;4431;5020;5057;5743
6601;-43.3733;-22.8063;São João de Meriti;Sede Municipal;RIO DE JANEIRO;4693;5954;6136;5017;4363;3618;3384;3372;4226;4431;5020;5057;5743
6604;-43.0637;-22.8273;São Gonçalo;Sede Municipal;RIO DE JANEIRO;4750;6119;6320;5106;4448;3601;3370;3381;4216;4397;5035;5092;5916
6606;-42.8643;-22.757;Itaboraí;Sede Municipal;RIO DE JANEIRO;4785;6178;6338;5094;4475;3624;3398;3419;4242;4465;5079;5154;5956
6612;-42.2303;-22.8499;Iguaba Grande;Sede Municipal;RIO DE JANEIRO;4860;6270;6490;5200;4511;3665;3442;3459;4291;4551;5174;5212;6062
6613;-42.103;-22.8433;São Pedro da Aldeia;Sede Municipal;RIO DE JANEIRO;4887;6308;6550;5219;4526;3687;3435;3468;4313;4588;5203;5238;6115
6616;-41.8849;-22.7533;Armação dos Búzios;Sede Municipal;RIO DE JANEIRO;5064;6495;6775;5379;4740;3791;3450;3535;4463;4743;5435;5570;6388
6733;-44.1423;-22.7205;Rio Claro;Sede Municipal;RIO DE JANEIRO;4608;5589;6000;4845;4275;3552;3335;3403;4259;4463;4913;4955;5704
6739;-43.5522;-22.7107;Queimados;Sede Municipal;RIO DE JANEIRO;4659;5849;6116;4999;4423;3618;3377;3385;4231;4387;4904;4949;5669
6744;-43.0319;-22.6636;Magé;Sede Municipal;RIO DE JANEIRO;4655;5933;6154;4990;4424;3586;3385;3390;4202;4353;4888;4896;5663
6747;-42.7206;-22.7428;Tanguá;Sede Municipal;RIO DE JANEIRO;4741;6057;6311;5044;4449;3635;3448;3444;4251;4457;4985;5025;5787
6748;-42.6279;-22.7186;Rio Bonito;Sede Municipal;RIO DE JANEIRO;4721;6013;6286;4996;4417;3635;3441;3443;4253;4458;4964;4988;5750
6751;-42.3965;-22.6579;Silva Jardim;Sede Municipal;RIO DE JANEIRO;4760;6116;6372;5078;4458;3657;3428;3436;4284;4479;5032;4998;5781
6875;-43.9084;-22.622;Piraí;Sede Municipal;RIO DE JANEIRO;4650;5734;6076;4934;4338;3562;3339;3401;4266;4467;4913;5023;5743
6877;-43.7112;-22.6083;Paracambi;Sede Municipal;RIO DE JANEIRO;4641;5774;6114;4969;4370;3591;3355;3390;4245;4421;4890;4928;5643
6878;-43.6606;-22.644;Japeri;Sede Municipal;RIO DE JANEIRO;4614;5722;6101;4931;4383;3590;3380;3393;4215;4382;4824;4881;5570
7009;-44.5679;-22.4902;Itatiaia;Sede Municipal;RIO DE JANEIRO;4436;5194;5384;4594;4244;3542;3334;3424;4336;4434;4705;4698;5343
7010;-44.4513;-22.471;Resende;Sede Municipal;RIO DE JANEIRO;4549;5386;5660;4784;4320;3592;3371;3430;4367;4489;4816;4868;5505
7013;-44.1756;-22.5486;Barra Mansa;Sede Municipal;RIO DE JANEIRO;4652;5631;5952;4903;4345;3596;3388;3429;4350;4563;4964;5005;5700
7013;-44.0999;-22.5207;Volta Redonda;Sede Municipal;RIO DE JANEIRO;4652;5631;5952;4903;4345;3596;3388;3429;4350;4563;4964;5005;5700
7014;-44.0025;-22.5177;Pinheiral;Sede Municipal;RIO DE JANEIRO;4671;5715;5996;4936;4370;3594;3396;3436;4351;4533;4952;5038;5727
7016;-43.8273;-22.472;Barra do Piraí;Sede Municipal;RIO DE JANEIRO;4653;5782;6049;4941;4350;3589;3347;3417;4247;4491;4897;5007;5713
7017;-43.7316;-22.525;Mendes;Sede Municipal;RIO DE JANEIRO;4698;5842;6103;4977;4390;3610;3405;3468;4297;4537;4949;5076;5727
7018;-43.6831;-22.5503;Engenheiro Paulo de Frontin;Sede Municipal;RIO DE JANEIRO;4681;5831;6119;4962;4375;3590;3397;3467;4260;4504;4932;5021;5708
7020;-43.4806;-22.4577;Miguel Pereira;Sede Municipal;RIO DE JANEIRO;4691;5772;6136;4955;4341;3623;3407;3506;4292;4546;4988;5007;5723
7023;-43.193;-22.5204;Petrópolis;Sede Municipal;RIO DE JANEIRO;4508;5514;5796;4690;4161;3480;3351;3449;4252;4482;4821;4733;5361
7025;-42.9899;-22.5352;Guapimirim;Sede Municipal;RIO DE JANEIRO;4319;5247;5696;4526;4038;3448;3279;3318;4081;4302;4509;4355;5023
7028;-42.6527;-22.4663;Cachoeiras de Macacu;Sede Municipal;RIO DE JANEIRO;4569;5672;6004;4828;4331;3576;3465;3449;4265;4442;4775;4645;5382
7032;-42.207;-22.4817;Casimiro de Abreu;Sede Municipal;RIO DE JANEIRO;4574;5764;6077;4808;4332;3612;3407;3403;4240;4417;4832;4617;5379
7035;-41.9479;-22.5179;Rio das Ostras;Sede Municipal;RIO DE JANEIRO;4784;6196;6409;5102;4468;3689;3424;3482;4291;4509;5031;4974;5837
7153;-44.2601;-22.405;Quatis;Sede Municipal;RIO DE JANEIRO;4600;5500;5799;4826;4326;3614;3424;3453;4396;4551;4869;4892;5544
7153;-44.2955;-22.418;Porto Real;Sede Municipal;RIO DE JANEIRO;4600;5500;5799;4826;4326;3614;3424;3453;4396;4551;4869;4892;5544
7159;-43.6689;-22.4064;Vassouras;Sede Municipal;RIO DE JANEIRO;4694;5792;6082;4983;4383;3596;3388;3484;4290;4544;4963;5071;5745
7161;-43.4289;-22.4314;Paty do Alferes;Sede Municipal;RIO DE JANEIRO;4757;5836;6180;5072;4408;3635;3393;3522;4311;4633;5106;5140;5847
7166;-42.9756;-22.4169;Teresópolis;Sede Municipal;RIO DE JANEIRO;4455;5430;5788;4678;4115;3476;3306;3407;4165;4459;4747;4588;5297
7178;-41.7852;-22.3773;Macaé;Sede Municipal;RIO DE JANEIRO;4916;6335;6576;5244;4641;3799;3492;3547;4387;4604;5134;5169;6064
7321;-42.5381;-22.2937;Nova Friburgo;Sede Municipal;RIO DE JANEIRO;4474;5506;5826;4701;4141;3486;3283;3453;4176;4461;4752;4587;5320
7469;-43.7133;-22.245;Valença;Sede Municipal;RIO DE JANEIRO;4671;5619;5984;4951;4369;3645;3451;3524;4374;4606;4918;4955;5654
7471;-43.586;-22.1697;Rio das Flores;Sede Municipal;RIO DE JANEIRO;4633;5726;5995;4928;4311;3594;3372;3482;4266;4553;4917;4896;5559
7474;-43.2956;-22.1632;Paraíba do Sul;Sede Municipal;RIO DE JANEIRO;4751;5863;6107;5099;4443;3638;3388;3548;4361;4669;5053;5051;5792
7475;-43.105;-22.2383;Areal;Sede Municipal;RIO DE JANEIRO;4754;5840;6111;5126;4479;3643;3404;3537;4353;4666;5049;5046;5797
7477;-42.9331;-22.153;São José do Vale do Rio Preto;Sede Municipal;RIO DE JANEIRO;4645;5733;6010;4984;4292;3576;3342;3504;4272;4569;4965;4862;5640
7482;-42.4255;-22.155;Bom Jardim;Sede Municipal;RIO DE JANEIRO;4546;5712;5952;4846;4232;3517;3289;3466;4165;4467;4762;4680;5462
7490;-41.6634;-22.1826;Carapebus;Sede Municipal;RIO DE JANEIRO;4865;6300;6486;5142;4560;3778;3500;3562;4361;4628;5060;5067;5941
7642;-43.2189;-22.117;Três Rios;Sede Municipal;RIO DE JANEIRO;4660;5709;5979;4991;4355;3583;3381;3534;4290;4582;4947;4915;5658
7649;-42.5236;-22.0541;Duas Barras;Sede Municipal;RIO DE JANEIRO;4596;5707;6034;4974;4306;3563;3325;3473;4190;4520;4828;4661;5569
7654;-42.071;-22.0631;Trajano de Moraes;Sede Municipal;RIO DE JANEIRO;4594;5857;6142;4888;4231;3554;3323;3428;4161;4504;4753;4706;5581
7656;-41.8722;-22.0839;Conceição de Macabu;Sede Municipal;RIO DE JANEIRO;4649;5867;6195;4985;4391;3697;3437;3487;4219;4471;4732;4714;5598
7660;-41.4696;-22.1036;Quissamã;Sede Municipal;RIO DE JANEIRO;4939;6392;6604;5245;4592;3791;3494;3590;4425;4672;5167;5187;6104
7813;-43.2144;-22.0409;Comendador Levy Gasparian;Sede Municipal;RIO DE JANEIRO;4597;5654;5872;4897;4297;3536;3375;3527;4227;4553;4880;4800;5541
7816;-42.9146;-21.9954;Sapucaia;Sede Municipal;RIO DE JANEIRO;4708;5789;6016;5084;4389;3600;3396;3559;4317;4636;5008;4989;5712
7819;-42.6765;-22.0489;Sumidouro;Sede Municipal;RIO DE JANEIRO;4756;5921;6199;5191;4528;3671;3380;3555;4324;4633;4965;4916;5789
7822;-42.3652;-22.0272;Cordeiro;Sede Municipal;RIO DE JANEIRO;4668;5878;6137;5010;4330;3620;3361;3537;4247;4556;4853;4825;5665
7822;-42.3668;-21.9802;Cantagalo;Sede Municipal;RIO DE JANEIRO;4668;5878;6137;5010;4330;3620;3361;3537;4247;4556;4853;4825;5665
7823;-42.2537;-21.9818;Macuco;Sede Municipal;RIO DE JANEIRO;4736;5990;6200;5112;4405;3654;3398;3555;4288;4599;4928;4929;5776
7824;-42.1332;-21.9583;São Sebastião do Alto;Sede Municipal;RIO DE JANEIRO;4779;6031;6283;5162;4452;3691;3418;3556;4308;4645;4961;5008;5834
7825;-42.0102;-21.9551;Santa Maria Madalena;Sede Municipal;RIO DE JANEIRO;4736;5967;6286;5107;4360;3669;3397;3512;4268;4623;4936;4938;5774
7990;-42.605;-21.9314;Carmo;Sede Municipal;RIO DE JANEIRO;4784;5920;6217;5226;4528;3697;3425;3586;4357;4693;4990;4950;5816
8174;-41.3184;-21.7627;Campos dos Goytacazes;Sede Municipal;RIO DE JANEIRO;4909;6329;6543;5245;4523;3791;3536;3585;4367;4699;5099;5153;6039
8338;-42.0762;-21.6753;Itaocara;Sede Municipal;RIO DE JANEIRO;4934;6224;6396;5301;4553;3825;3537;3638;4430;4834;5217;5222;6029
8507;-42.102;-21.6257;Aperibé;Sede Municipal;RIO DE JANEIRO;4863;6144;6299;5204;4484;3741;3473;3609;4348;4807;5157;5087;6004
8509;-41.9191;-21.5695;Cambuci;Sede Municipal;RIO DE JANEIRO;4837;6189;6249;5141;4487;3787;3532;3619;4348;4768;5058;5000;5862
8511;-41.7485;-21.6485;São Fidélis;Sede Municipal;RIO DE JANEIRO;4893;6254;6376;5209;4490;3859;3580;3644;4380;4774;5101;5081;5968
8518;-41.0449;-21.6385;São João da Barra;Sede Municipal;RIO DE JANEIRO;5060;6476;6691;5377;4626;3852;3584;3668;4547;4908;5379;5369;6238
8677;-42.1835;-21.5415;Santo Antônio de Pádua;Sede Municipal;RIO DE JANEIRO;4848;6048;6269;5212;4484;3753;3477;3604;4397;4805;5148;5045;5934
8682;-41.6155;-21.4898;Cardoso Moreira;Sede Municipal;RIO DE JANEIRO;4917;6316;6425;5229;4521;3827;3543;3644;4385;4829;5164;5135;5986
8687;-41.1076;-21.4752;São Francisco de Itabapoana;Sede Municipal;RIO DE JANEIRO;4993;6480;6676;5301;4517;3836;3563;3635;4500;4831;5261;5227;6088
8847;-42.1942;-21.4153;Miracema;Sede Municipal;RIO DE JANEIRO;4797;5938;6181;5117;4423;3754;3483;3605;4384;4778;5118;4953;5832
8849;-41.9385;-21.3589;São José de Ubá;Sede Municipal;RIO DE JANEIRO;4885;6138;6355;5176;4469;3793;3526;3641;4420;4841;5192;5088;5982
8851;-41.7018;-21.4301;Italva;Sede Municipal;RIO DE JANEIRO;4931;6266;6424;5248;4507;3874;3536;3645;4426;4861;5191;5159;6033
9188;-42.1191;-21.2102;Laje do Muriaé;Sede Municipal;RIO DE JANEIRO;4906;6115;6309;5186;4529;3819;3603;3701;4496;4897;5216;5060;5946
9190;-41.902;-21.1977;Itaperuna;Sede Municipal;RIO DE JANEIRO;4945;6177;6368;5227;4579;3850;3599;3709;4524;4922;5227;5124;6033
9364;-41.6826;-21.1453;Bom Jesus do Itabapoana;Sede Municipal;RIO DE JANEIRO;4870;6112;6253;5127;4490;3861;3622;3719;4488;4899;5097;4972;5800
9531;-42.041;-20.9653;Porciúncula;Sede Municipal;RIO DE JANEIRO;4897;6080;6275;5133;4509;3841;3672;3788;4569;4957;5169;4967;5801
9532;-41.9732;-21.0439;Natividade;Sede Municipal;RIO DE JANEIRO;4917;6080;6279;5158;4578;3901;3689;3789;4554;4933;5171;5016;5850
9705;-41.8704;-20.928;Varre-Sai;Sede Municipal;RIO DE JANEIRO;4770;5880;6040;4937;4392;3784;3632;3742;4496;4894;5010;4806;5628
