ID;LON;LAT;NAME;CLASS;STATE;ANNUAL;JAN;FEB;MAR;APR;MAY;JUN;JUL;AUG;SEP;OCT;NOV;DEC
24087;-61.0475;-13.4827;Pimenteiras do Oeste;Sede Municipal;RONDÔNIA;4832;4846;4696;4697;4737;4259;4369;4594;5105;5058;5265;5251;5108
24092;-60.5446;-13.4951;Cabixi;Sede Municipal;RONDÔNIA;4795;4848;4636;4693;4769;4243;4329;4520;4991;4941;5249;5212;5110
24789;-60.8173;-13.1874;Cerejeiras;Sede Municipal;RONDÔNIA;4767;4752;4663;4705;4632;4233;4354;4494;4965;4956;5239;5174;5044
25030;-60.5459;-13.1178;Colorado do Oeste;Sede Municipal;RONDÔNIA;4684;4642;4466;4529;4556;4169;4356;4539;5017;4913;5089;5029;4909
25269;-60.9421;-12.9982;Corumbiara;Sede Municipal;RONDÔNIA;4728;4672;4590;4566;4583;4205;4374;4512;5029;4940;5193;5122;4948
25773;-60.1493;-12.7506;Vilhena;Sede Municipal;RONDÔNIA;4634;4582;4449;4425;4519;4241;4364;4539;5048;4797;4948;4872;4824
26274;-60.9026;-12.5533;Chupinguaia;Sede Municipal;RONDÔNIA;4726;4630;4568;4572;4591;4247;4379;4499;4958;4959;5229;5126;4948
26772;-64.2284;-12.4371;Costa Marques;Sede Municipal;RONDÔNIA;4640;4665;4537;4485;4556;3920;4164;4372;4886;4934;5128;5096;4936
27338;-61.6037;-12.1758;Parecis;Sede Municipal;RONDÔNIA;4646;4426;4401;4492;4571;4155;4335;4482;4984;4949;5134;5008;4815
27591;-63.5684;-12.0524;São Francisco do Guaporé;Sede Municipal;RONDÔNIA;4582;4540;4414;4406;4471;3892;4187;4398;4854;4908;5129;4980;4805
27608;-61.8379;-12.1405;Alto Alegre dos Parecis;Sede Municipal;RONDÔNIA;4624;4455;4395;4426;4487;4087;4311;4454;4996;5019;5132;4964;4762
28157;-61.9958;-11.9287;Alta Floresta D'Oeste;Sede Municipal;RONDÔNIA;4635;4414;4386;4494;4536;4106;4323;4457;4981;4986;5163;5008;4760
28159;-61.7781;-11.9078;Santa Luzia D'Oeste;Sede Municipal;RONDÔNIA;4666;4504;4415;4561;4562;4172;4377;4496;4960;4990;5146;4998;4811
28161;-61.5031;-11.9027;São Felipe D'Oeste;Sede Municipal;RONDÔNIA;4678;4522;4453;4580;4596;4179;4371;4496;4948;4969;5180;5007;4836
28423;-63.0337;-11.7699;Seringueiras;Sede Municipal;RONDÔNIA;4576;4477;4418;4410;4432;3937;4242;4441;4911;4951;5042;4958;4688
28440;-61.3158;-11.8299;Primavera de Rondônia;Sede Municipal;RONDÔNIA;4645;4450;4426;4531;4519;4216;4359;4543;4938;4910;5083;4972;4794
28704;-62.7197;-11.6957;São Miguel do Guaporé;Sede Municipal;RONDÔNIA;4611;4455;4454;4445;4474;3962;4277;4474;4924;5025;5115;4983;4746
28708;-62.3131;-11.7251;Nova Brasilândia D'Oeste;Sede Municipal;RONDÔNIA;4597;4452;4404;4432;4461;3980;4349;4444;4945;4937;5116;4912;4732
28711;-61.9993;-11.7091;Novo Horizonte do Oeste;Sede Municipal;RONDÔNIA;4651;4502;4408;4552;4558;4109;4386;4455;4970;4972;5140;5021;4734
28714;-61.7719;-11.7275;Rolim de Moura;Sede Municipal;RONDÔNIA;4634;4452;4414;4572;4531;4116;4359;4500;4878;4951;5129;4940;4768
28720;-61.1984;-11.6724;Pimenta Bueno;Sede Municipal;RONDÔNIA;4651;4430;4407;4551;4512;4193;4402;4547;4996;4888;5088;4981;4821
29280;-61.0256;-11.527;Espigão D'Oeste;Sede Municipal;RONDÔNIA;4659;4491;4448;4500;4485;4159;4423;4571;4961;4926;5155;5025;4772
29552;-61.9487;-11.4257;Castanheiras;Sede Municipal;RONDÔNIA;4631;4432;4382;4505;4570;4135;4343;4480;4881;4882;5152;5047;4757
29557;-61.4566;-11.4347;Cacoal;Sede Municipal;RONDÔNIA;4622;4339;4362;4476;4518;4143;4385;4538;4962;4923;5109;4973;4739
29830;-62.2852;-11.3467;Alvorada D'Oeste;Sede Municipal;RONDÔNIA;4625;4463;4467;4480;4547;4068;4343;4484;4924;4905;5079;5000;4738
30115;-61.8991;-11.1694;Presidente Médici;Sede Municipal;RONDÔNIA;4636;4488;4412;4490;4524;4124;4398;4473;4892;4929;5171;4968;4763
30119;-61.5179;-11.1964;Ministro Andreazza;Sede Municipal;RONDÔNIA;4592;4341;4380;4425;4435;4065;4374;4553;4927;4878;5018;4944;4767
30400;-62.3644;-11.1265;Urupá;Sede Municipal;RONDÔNIA;4610;4425;4389;4416;4526;4062;4360;4494;4891;4908;5186;4958;4710
30702;-62.6701;-11.0294;Mirante da Serra;Sede Municipal;RONDÔNIA;4575;4404;4318;4379;4454;3999;4322;4459;4903;4924;5113;4958;4667
31012;-62.5562;-10.9122;Nova União;Sede Municipal;RONDÔNIA;4581;4378;4355;4447;4462;4010;4326;4446;4887;4934;5129;4960;4638
31015;-62.2562;-10.9337;Teixeirópolis;Sede Municipal;RONDÔNIA;4625;4527;4388;4431;4490;4054;4385;4520;4946;4872;5181;4991;4712
31018;-61.9326;-10.8782;Ji-Paraná;Sede Municipal;RONDÔNIA;4606;4411;4425;4454;4505;4074;4363;4430;4867;4877;5149;4968;4747
31295;-65.33;-10.7893;Guajará-Mirim;Sede Municipal;RONDÔNIA;4585;4513;4470;4356;4433;3960;4141;4378;4908;4972;5134;4912;4834
31643;-62.257;-10.7171;Ouro Preto do Oeste;Sede Municipal;RONDÔNIA;4573;4417;4270;4401;4491;4075;4380;4456;4889;4847;5094;4918;4637
31948;-63.6212;-10.5699;Campo Novo de Rondônia;Sede Municipal;RONDÔNIA;4525;4244;4346;4326;4462;4093;4365;4384;4862;4895;5014;4761;4553
31957;-62.7375;-10.6104;Governador Jorge Teixeira;Sede Municipal;RONDÔNIA;4569;4374;4297;4399;4516;4007;4343;4464;4886;4935;5079;4847;4676
32579;-65.3351;-10.4081;Nova Mamoré;Sede Municipal;RONDÔNIA;4568;4498;4513;4359;4416;3939;4181;4391;4860;5001;5115;4798;4748
32608;-62.4792;-10.4322;Jaru;Sede Municipal;RONDÔNIA;4561;4348;4357;4377;4493;4029;4428;4457;4832;4903;5056;4854;4597
32611;-62.1285;-10.4268;Vale do Paraíso;Sede Municipal;RONDÔNIA;4576;4368;4326;4380;4513;4060;4422;4514;4879;4863;5062;4864;4663
32929;-63.2983;-10.2594;Monte Negro;Sede Municipal;RONDÔNIA;4531;4210;4407;4386;4453;4005;4380;4432;4905;4918;5013;4759;4510
32932;-62.9003;-10.3387;Cacaulândia;Sede Municipal;RONDÔNIA;4537;4270;4269;4389;4497;4036;4362;4448;4891;4887;5040;4804;4554
33253;-63.8312;-10.206;Buritis;Sede Municipal;RONDÔNIA;4501;4301;4383;4334;4379;3981;4302;4378;4837;4905;4964;4738;4505
33268;-62.3543;-10.2487;Theobroma;Sede Municipal;RONDÔNIA;4540;4380;4289;4294;4477;4038;4430;4494;4835;4844;4988;4785;4618
34288;-63.033;-9.9061;Ariquemes;Sede Municipal;RONDÔNIA;4494;4302;4315;4285;4416;3982;4332;4396;4740;4854;4967;4728;4616
34297;-62.1745;-9.8577;Vale do Anari;Sede Municipal;RONDÔNIA;4535;4335;4363;4337;4456;4057;4410;4536;4849;4809;4970;4716;4590
35011;-63.3193;-9.7147;Alto Paraíso;Sede Municipal;RONDÔNIA;4514;4301;4376;4326;4375;4015;4324;4422;4854;4855;5026;4768;4519
35016;-62.8985;-9.7049;Rio Crespo;Sede Municipal;RONDÔNIA;4512;4211;4351;4277;4372;4045;4368;4459;4835;4844;4987;4802;4596
36134;-62.585;-9.3611;Cujubim;Sede Municipal;RONDÔNIA;4494;4160;4290;4344;4295;4005;4422;4495;4870;4799;4968;4729;4545
36140;-61.9976;-9.4275;Machadinho D'Oeste;Sede Municipal;RONDÔNIA;4515;4194;4310;4331;4344;4045;4484;4591;4853;4844;4985;4679;4517
36884;-63.1787;-9.1954;Itapuã do Oeste;Sede Municipal;RONDÔNIA;4524;4196;4388;4293;4336;3995;4409;4551;4846;4957;5030;4787;4497
38394;-63.9008;-8.7616;Porto Velho;Capital Estadual;RONDÔNIA;4480;4213;4439;4321;4345;3970;4277;4468;4842;4856;4953;4648;4426
38396;-63.701;-8.7911;Candeias do Jamari;Sede Municipal;RONDÔNIA;4465;4244;4383;4346;4323;4003;4364;4487;4740;4772;4865;4657;4393
