ID;LON;LAT;NAME;CLASS;STATE;ANNUAL;JAN;FEB;MAR;APR;MAY;JUN;JUL;AUG;SEP;OCT;NOV;DEC
2;-53.4599;-33.6871;Chuí;Sede Municipal;RIO GRANDE DO SUL;4446;6610;5735;4986;3588;2550;2167;2280;2926;3810;5199;6470;7036
12;-53.3722;-33.5255;Santa Vitória do Palmar;Sede Municipal;RIO GRANDE DO SUL;4439;6594;5726;4971;3610;2582;2175;2280;2933;3803;5181;6440;6973
92;-53.3775;-32.5609;Jaguarão;Sede Municipal;RIO GRANDE DO SUL;4431;6553;5804;4907;3662;2633;2198;2341;2980;3719;5043;6399;6933
152;-53.0866;-32.2331;Arroio Grande;Sede Municipal;RIO GRANDE DO SUL;4340;6376;5607;4788;3635;2629;2219;2383;2998;3612;4900;6201;6727
189;-53.3948;-32.0245;Herval;Sede Municipal;RIO GRANDE DO SUL;4377;6301;5648;4826;3683;2631;2243;2449;3032;3641;4978;6289;6807
201;-52.1075;-32.0354;Rio Grande;Sede Municipal;RIO GRANDE DO SUL;4367;6376;5735;4847;3634;2647;2213;2377;3000;3624;4929;6229;6790
202;-52.0338;-32.0125;São José do Norte;Sede Municipal;RIO GRANDE DO SUL;4366;6391;5749;4852;3650;2645;2219;2370;2992;3626;4913;6215;6774
205;-54.1619;-31.867;Aceguá;Sede Municipal;RIO GRANDE DO SUL;4518;6568;5883;5027;3750;2671;2261;2486;3112;3826;5176;6454;7008
218;-52.8189;-31.8647;Pedro Osório;Sede Municipal;RIO GRANDE DO SUL;4345;6329;5650;4792;3653;2638;2245;2410;3015;3583;4887;6201;6740
245;-52.8009;-31.8424;Cerrito;Sede Municipal;RIO GRANDE DO SUL;4320;6268;5626;4751;3631;2622;2220;2415;3008;3556;4864;6184;6695
249;-52.4893;-31.7569;Capão do Leão;Sede Municipal;RIO GRANDE DO SUL;4288;6221;5573;4746;3603;2640;2235;2405;2991;3533;4770;6110;6626
250;-52.3375;-31.7654;Pelotas;Sede Municipal;RIO GRANDE DO SUL;4311;6277;5633;4790;3635;2649;2227;2373;2984;3538;4799;6151;6673
268;-53.5823;-31.7374;Pedras Altas;Sede Municipal;RIO GRANDE DO SUL;4463;6448;5798;4911;3715;2661;2277;2508;3117;3747;5075;6383;6914
299;-53.6729;-31.5579;Candiota;Sede Municipal;RIO GRANDE DO SUL;4468;6424;5807;4934;3720;2669;2276;2501;3146;3745;5068;6399;6933
302;-53.3803;-31.5799;Pinheiro Machado;Sede Municipal;RIO GRANDE DO SUL;4414;6292;5760;4860;3695;2653;2273;2477;3114;3682;4985;6306;6869
309;-52.6265;-31.5892;Morro Redondo;Sede Municipal;RIO GRANDE DO SUL;4287;6209;5544;4733;3618;2643;2221;2430;3037;3524;4775;6085;6622
371;-53.8672;-31.4072;Hulha Negra;Sede Municipal;RIO GRANDE DO SUL;4506;6462;5887;5023;3772;2704;2293;2537;3178;3785;5098;6413;6922
378;-53.1003;-31.4483;Piratini;Sede Municipal;RIO GRANDE DO SUL;4396;6273;5712;4826;3692;2688;2260;2496;3133;3681;4936;6257;6795
383;-52.6787;-31.3965;Canguçu;Sede Municipal;RIO GRANDE DO SUL;4317;6174;5611;4727;3658;2676;2257;2475;3089;3598;4819;6075;6651
385;-52.4222;-31.4426;Arroio do Padre;Sede Municipal;RIO GRANDE DO SUL;4268;6131;5546;4690;3643;2660;2244;2468;3053;3523;4743;6009;6504
388;-52.1779;-31.422;Turuçu;Sede Municipal;RIO GRANDE DO SUL;4291;6218;5577;4714;3650;2684;2265;2442;3056;3526;4715;6069;6576
390;-51.9736;-31.361;São Lourenço do Sul;Sede Municipal;RIO GRANDE DO SUL;4398;6471;5801;4877;3696;2696;2263;2416;3038;3625;4855;6257;6778
411;-54.1069;-31.331;Bagé;Sede Municipal;RIO GRANDE DO SUL;4535;6482;5941;5013;3774;2733;2308;2565;3211;3835;5162;6442;6950
442;-51.0939;-31.2869;Tavares;Sede Municipal;RIO GRANDE DO SUL;4451;6617;5858;4896;3795;2734;2279;2461;3101;3635;4877;6317;6841
537;-50.9171;-31.1059;Mostardas;Sede Municipal;RIO GRANDE DO SUL;4415;6485;5849;4856;3780;2732;2257;2449;3102;3599;4834;6242;6794
553;-54.6702;-30.9793;Dom Pedrito;Sede Municipal;RIO GRANDE DO SUL;4608;6698;6003;5108;3882;2791;2352;2583;3291;3871;5253;6458;7014
579;-52.0462;-31.0041;Cristal;Sede Municipal;RIO GRANDE DO SUL;4325;6285;5664;4762;3705;2707;2265;2447;3085;3563;4721;6080;6615
599;-55.532;-30.8882;Sant'Ana do Livramento;Sede Municipal;RIO GRANDE DO SUL;4623;6677;5973;5100;3952;2789;2323;2633;3339;3939;5281;6435;7032
623;-53.1149;-30.872;Santana da Boa Vista;Sede Municipal;RIO GRANDE DO SUL;4450;6353;5856;4923;3752;2709;2277;2502;3170;3711;4987;6275;6877
632;-52.2514;-30.8761;Amaral Ferrador;Sede Municipal;RIO GRANDE DO SUL;4335;6291;5669;4753;3696;2710;2271;2456;3094;3573;4734;6107;6665
639;-51.505;-30.9097;Arambaré;Sede Municipal;RIO GRANDE DO SUL;4393;6478;5814;4881;3737;2771;2263;2474;3095;3600;4747;6175;6686
672;-53.8963;-30.806;Lavras do Sul;Sede Municipal;RIO GRANDE DO SUL;4520;6452;5885;5021;3832;2763;2312;2599;3251;3836;5069;6325;6901
691;-51.9741;-30.7509;Chuvisca;Sede Municipal;RIO GRANDE DO SUL;4299;6253;5603;4701;3708;2703;2266;2482;3117;3539;4657;6039;6521
692;-51.8048;-30.8494;Camaquã;Sede Municipal;RIO GRANDE DO SUL;4277;6241;5533;4692;3687;2715;2254;2468;3095;3519;4640;6012;6468
746;-52.1031;-30.7008;Dom Feliciano;Sede Municipal;RIO GRANDE DO SUL;4322;6213;5633;4747;3729;2719;2277;2508;3129;3559;4701;6066;6584
753;-51.3996;-30.6688;Tapes;Sede Municipal;RIO GRANDE DO SUL;4388;6495;5711;4848;3768;2780;2291;2500;3092;3623;4754;6198;6598
809;-51.7487;-30.5953;Cerro Grande do Sul;Sede Municipal;RIO GRANDE DO SUL;4257;6144;5463;4664;3707;2715;2291;2478;3110;3508;4599;6003;6400
811;-51.5866;-30.6112;Sentinela do Sul;Sede Municipal;RIO GRANDE DO SUL;4306;6260;5563;4728;3736;2759;2286;2502;3109;3557;4653;6091;6434
854;-53.4832;-30.5148;Caçapava do Sul;Sede Municipal;RIO GRANDE DO SUL;4521;6454;5900;5006;3861;2794;2326;2569;3289;3810;5042;6324;6883
863;-52.5208;-30.5435;Encruzilhada do Sul;Sede Municipal;RIO GRANDE DO SUL;4457;6431;5811;4888;3817;2780;2335;2562;3232;3723;4938;6221;6748
872;-51.6022;-30.4567;Sertão Santana;Sede Municipal;RIO GRANDE DO SUL;4282;6148;5531;4677;3728;2742;2316;2506;3136;3511;4625;6039;6423
887;-56.4487;-30.3845;Quaraí;Sede Municipal;RIO GRANDE DO SUL;4788;6843;6178;5294;4101;2943;2425;2751;3508;4223;5433;6582;7179
934;-51.7389;-30.3896;Barão do Triunfo;Sede Municipal;RIO GRANDE DO SUL;4341;6174;5620;4731;3760;2756;2356;2545;3196;3570;4727;6115;6547
936;-51.5829;-30.353;Mariana Pimentel;Sede Municipal;RIO GRANDE DO SUL;4314;6245;5591;4718;3718;2752;2318;2513;3131;3540;4684;6077;6486
972;-54.9139;-30.258;Rosário do Sul;Sede Municipal;RIO GRANDE DO SUL;4647;6726;6041;5148;3950;2872;2383;2640;3380;3956;5227;6399;7046
978;-54.3199;-30.336;São Gabriel;Sede Municipal;RIO GRANDE DO SUL;4622;6620;6085;5170;3965;2864;2371;2602;3340;3903;5162;6384;6998
981;-54.0822;-30.3398;Santa Margarida do Sul;Sede Municipal;RIO GRANDE DO SUL;4609;6588;6057;5111;3930;2861;2386;2619;3340;3886;5126;6396;7008
983;-53.8772;-30.3486;Vila Nova do Sul;Sede Municipal;RIO GRANDE DO SUL;4600;6547;6075;5108;3939;2843;2381;2602;3345;3865;5118;6412;6959
1008;-51.3018;-30.2944;Barra do Ribeiro;Sede Municipal;RIO GRANDE DO SUL;4424;6526;5802;4842;3803;2785;2330;2544;3168;3615;4805;6191;6676
1016;-50.5099;-30.258;Palmares do Sul;Sede Municipal;RIO GRANDE DO SUL;4469;6567;5961;4889;3874;2811;2327;2528;3178;3608;4867;6234;6785
1021;-57.5502;-30.2033;Barra do Quaraí;Sede Municipal;RIO GRANDE DO SUL;4874;7068;6317;5335;4170;2992;2434;2822;3584;4312;5567;6615;7267
1058;-53.5649;-30.161;São Sepé;Sede Municipal;RIO GRANDE DO SUL;4545;6491;6028;5068;3875;2825;2330;2541;3304;3803;5027;6346;6903
1070;-52.3734;-30.1906;Pantano Grande;Sede Municipal;RIO GRANDE DO SUL;4471;6485;5952;4946;3802;2780;2313;2527;3225;3724;4908;6231;6756
1091;-50.2151;-30.1702;Cidreira;Sede Municipal;RIO GRANDE DO SUL;4404;6441;5788;4791;3861;2798;2350;2519;3142;3567;4744;6172;6672
1091;-50.2341;-30.2424;Balneário Pinhal;Sede Municipal;RIO GRANDE DO SUL;4404;6441;5788;4791;3861;2798;2350;2519;3142;3567;4744;6172;6672
1148;-52.0479;-30.127;Minas do Leão;Sede Municipal;RIO GRANDE DO SUL;4449;6453;5861;4898;3804;2783;2320;2527;3211;3668;4873;6252;6734
1149;-51.9605;-30.1184;Butiá;Sede Municipal;RIO GRANDE DO SUL;4437;6418;5859;4865;3794;2767;2318;2529;3211;3658;4849;6254;6721
1151;-51.7279;-30.088;Arroio dos Ratos;Sede Municipal;RIO GRANDE DO SUL;4423;6413;5824;4875;3793;2755;2318;2526;3204;3623;4840;6207;6698
1155;-51.3238;-30.1091;Guaíba;Sede Municipal;RIO GRANDE DO SUL;4457;6522;5869;4882;3832;2789;2320;2538;3216;3629;4866;6266;6755
1158;-51.0199;-30.0824;Viamão;Sede Municipal;RIO GRANDE DO SUL;4375;6352;5744;4774;3780;2760;2313;2516;3175;3563;4750;6181;6593
1163;-50.5149;-30.145;Capivari do Sul;Sede Municipal;RIO GRANDE DO SUL;4438;6513;5882;4843;3872;2803;2358;2547;3201;3560;4796;6200;6681
1207;-53.5029;-30.0014;Formigueiro;Sede Municipal;RIO GRANDE DO SUL;4548;6543;6037;5068;3887;2818;2338;2539;3312;3811;4983;6321;6919
1214;-52.8939;-30.039;Cachoeira do Sul;Sede Municipal;RIO GRANDE DO SUL;4474;6496;5936;4992;3819;2786;2302;2500;3253;3716;4876;6240;6775
1219;-52.378;-29.9897;Rio Pardo;Sede Municipal;RIO GRANDE DO SUL;4435;6426;5878;4896;3788;2795;2319;2495;3219;3640;4829;6221;6718
1225;-51.7211;-29.9646;São Jerônimo;Sede Municipal;RIO GRANDE DO SUL;4422;6420;5862;4867;3787;2768;2292;2509;3216;3612;4830;6206;6697
1226;-51.6293;-29.963;Charqueadas;Sede Municipal;RIO GRANDE DO SUL;4423;6436;5867;4854;3793;2770;2295;2516;3219;3611;4825;6209;6679
1229;-51.3109;-29.9979;Eldorado do Sul;Sede Municipal;RIO GRANDE DO SUL;4450;6518;5902;4877;3813;2773;2312;2524;3212;3609;4844;6261;6754
1232;-51.0813;-29.9919;Alvorada;Sede Municipal;RIO GRANDE DO SUL;4380;6369;5761;4810;3780;2765;2303;2512;3172;3561;4729;6187;6612
1241;-50.1285;-29.9758;Imbé;Sede Municipal;RIO GRANDE DO SUL;4389;6360;5728;4757;3851;2861;2371;2540;3202;3592;4694;6129;6578
1241;-50.1326;-29.9846;Tramandaí;Sede Municipal;RIO GRANDE DO SUL;4389;6360;5728;4757;3851;2861;2371;2540;3202;3592;4694;6129;6578
1267;-54.8249;-29.8839;Cacequi;Sede Municipal;RIO GRANDE DO SUL;4633;6654;6072;5155;3950;2900;2395;2642;3371;3934;5153;6373;6998
1298;-51.7079;-29.9296;Triunfo;Sede Municipal;RIO GRANDE DO SUL;4410;6393;5842;4866;3792;2765;2293;2502;3234;3583;4774;6204;6666
1298;-51.7616;-29.9037;General Câmara;Sede Municipal;RIO GRANDE DO SUL;4410;6393;5842;4866;3792;2765;2293;2502;3234;3583;4774;6204;6666
1304;-51.1845;-29.8524;Esteio;Sede Municipal;RIO GRANDE DO SUL;4388;6340;5783;4815;3789;2781;2315;2515;3195;3577;4730;6185;6627
1304;-51.1021;-29.9477;Cachoeirinha;Sede Municipal;RIO GRANDE DO SUL;4388;6340;5783;4815;3789;2781;2315;2515;3195;3577;4730;6185;6627
1304;-51.1861;-29.9132;Canoas;Sede Municipal;RIO GRANDE DO SUL;4388;6340;5783;4815;3789;2781;2315;2515;3195;3577;4730;6185;6627
1305;-51.0167;-29.9362;Gravataí;Sede Municipal;RIO GRANDE DO SUL;4384;6341;5764;4799;3791;2788;2319;2509;3197;3572;4713;6193;6624
1308;-50.7738;-29.8803;Glorinha;Sede Municipal;RIO GRANDE DO SUL;4422;6395;5828;4823;3837;2822;2350;2554;3196;3603;4754;6244;6658
1313;-50.2672;-29.8886;Osório;Sede Municipal;RIO GRANDE DO SUL;4298;6217;5554;4662;3808;2819;2372;2566;3226;3497;4539;5960;6358
1319;-57.0858;-29.7619;Uruguaiana;Sede Municipal;RIO GRANDE DO SUL;4828;6984;6217;5286;4128;3025;2456;2808;3566;4259;5504;6550;7153
1331;-55.8025;-29.7891;Alegrete;Sede Municipal;RIO GRANDE DO SUL;4777;6878;6146;5287;4112;2966;2458;2750;3516;4155;5421;6532;7106
1356;-53.3749;-29.813;Restinga Sêca;Sede Municipal;RIO GRANDE DO SUL;4510;6499;5954;5023;3856;2822;2328;2563;3279;3756;4921;6300;6823
1368;-52.1839;-29.787;Vale Verde;Sede Municipal;RIO GRANDE DO SUL;4401;6236;5828;4854;3803;2815;2333;2551;3228;3628;4746;6158;6634
1371;-51.8658;-29.7948;Taquari;Sede Municipal;RIO GRANDE DO SUL;4416;6387;5845;4871;3811;2773;2300;2516;3262;3593;4739;6212;6681
1377;-51.27;-29.8484;Nova Santa Rita;Sede Municipal;RIO GRANDE DO SUL;4398;6316;5841;4881;3809;2795;2337;2543;3198;3559;4690;6173;6634
1378;-51.1502;-29.755;São Leopoldo;Sede Municipal;RIO GRANDE DO SUL;4379;6314;5783;4800;3804;2792;2335;2517;3207;3560;4682;6142;6616
1378;-51.1454;-29.8281;Sapucaia do Sul;Sede Municipal;RIO GRANDE DO SUL;4379;6314;5783;4800;3804;2792;2335;2517;3207;3560;4682;6142;6616
1384;-50.5179;-29.8273;Santo Antônio da Patrulha;Sede Municipal;RIO GRANDE DO SUL;4417;6407;5813;4805;3833;2820;2342;2570;3216;3591;4741;6209;6659
1385;-50.435;-29.7899;Caraá;Sede Municipal;RIO GRANDE DO SUL;4391;6369;5769;4783;3827;2807;2340;2561;3197;3551;4706;6171;6604
1389;-50.0287;-29.7647;Capão da Canoa;Sede Municipal;RIO GRANDE DO SUL;4356;6257;5594;4731;3886;2909;2417;2616;3233;3573;4608;6019;6425
1389;-50.0438;-29.801;Xangri-lá;Sede Municipal;RIO GRANDE DO SUL;4356;6257;5594;4731;3886;2909;2417;2616;3233;3573;4608;6019;6425
1415;-54.679;-29.6919;São Vicente do Sul;Sede Municipal;RIO GRANDE DO SUL;4623;6616;6027;5129;3953;2910;2413;2677;3417;3903;5077;6371;6981
1419;-54.2127;-29.7059;Dilermando de Aguiar;Sede Municipal;RIO GRANDE DO SUL;4581;6575;6068;5071;3919;2858;2374;2614;3373;3865;4998;6320;6936
1423;-53.8154;-29.6873;Santa Maria;Sede Municipal;RIO GRANDE DO SUL;4508;6461;5963;4967;3891;2809;2333;2563;3323;3774;4927;6275;6809
1430;-53.1417;-29.666;Paraíso do Sul;Sede Municipal;RIO GRANDE DO SUL;4456;6357;5867;4967;3808;2773;2315;2555;3298;3676;4880;6228;6747
1432;-52.9411;-29.6575;Cerro Branco;Sede Municipal;RIO GRANDE DO SUL;4391;6188;5781;4901;3814;2785;2327;2547;3266;3629;4765;6097;6597
1432;-52.9494;-29.7342;Novo Cabrais;Sede Municipal;RIO GRANDE DO SUL;4391;6188;5781;4901;3814;2785;2327;2547;3266;3629;4765;6097;6597
1434;-52.79;-29.6689;Candelária;Sede Municipal;RIO GRANDE DO SUL;4390;6243;5821;4901;3788;2801;2320;2551;3241;3611;4739;6087;6577
1436;-52.5156;-29.7189;Vera Cruz;Sede Municipal;RIO GRANDE DO SUL;4363;6147;5754;4862;3784;2790;2320;2534;3234;3590;4705;6089;6553
1437;-52.4348;-29.7225;Santa Cruz do Sul;Sede Municipal;RIO GRANDE DO SUL;4356;6131;5722;4833;3783;2796;2322;2540;3237;3588;4677;6092;6547
1439;-52.2752;-29.7485;Passo do Sobrado;Sede Municipal;RIO GRANDE DO SUL;4359;6149;5783;4825;3788;2781;2305;2527;3219;3586;4683;6107;6549
1447;-51.4603;-29.6872;Montenegro;Sede Municipal;RIO GRANDE DO SUL;4366;6225;5773;4857;3788;2804;2315;2526;3205;3540;4624;6140;6592
1448;-51.3181;-29.692;Capela de Santana;Sede Municipal;RIO GRANDE DO SUL;4378;6250;5784;4875;3791;2816;2331;2527;3205;3548;4659;6149;6603
1449;-51.2433;-29.702;Portão;Sede Municipal;RIO GRANDE DO SUL;4381;6260;5797;4857;3783;2818;2335;2540;3225;3571;4660;6108;6620
1450;-51.1333;-29.688;Novo Hamburgo;Sede Municipal;RIO GRANDE DO SUL;4354;6243;5746;4782;3779;2827;2320;2526;3201;3557;4629;6079;6567
1450;-51.1848;-29.654;Estância Velha;Sede Municipal;RIO GRANDE DO SUL;4354;6243;5746;4782;3779;2827;2320;2526;3201;3557;4629;6079;6567
1451;-51.0611;-29.6752;Campo Bom;Sede Municipal;RIO GRANDE DO SUL;4343;6241;5707;4754;3779;2822;2325;2519;3188;3556;4622;6070;6528
1454;-50.7757;-29.651;Taquara;Sede Municipal;RIO GRANDE DO SUL;4378;6265;5715;4787;3813;2837;2341;2546;3227;3591;4690;6164;6557
1456;-50.5761;-29.651;Rolante;Sede Municipal;RIO GRANDE DO SUL;4375;6315;5718;4752;3814;2806;2334;2573;3226;3561;4690;6172;6536
1459;-50.2069;-29.675;Maquiné;Sede Municipal;RIO GRANDE DO SUL;4098;5740;5168;4387;3702;2732;2360;2585;3234;3417;4284;5608;5954
1479;-55.4846;-29.5864;Manoel Viana;Sede Municipal;RIO GRANDE DO SUL;4723;6814;6128;5234;4031;2976;2474;2709;3508;4070;5267;6429;7036
1482;-55.1258;-29.5552;São Francisco de Assis;Sede Municipal;RIO GRANDE DO SUL;4675;6687;6085;5174;3999;2948;2458;2712;3479;4006;5195;6372;6987
1489;-54.4646;-29.5654;Mata;Sede Municipal;RIO GRANDE DO SUL;4582;6527;6025;5079;3939;2876;2399;2660;3396;3873;5013;6297;6900
1492;-54.179;-29.6209;São Pedro do Sul;Sede Municipal;RIO GRANDE DO SUL;4558;6495;5985;5045;3916;2864;2374;2637;3376;3841;4993;6310;6855
1496;-53.7649;-29.61;Itaara;Sede Municipal;RIO GRANDE DO SUL;4503;6384;5923;4960;3890;2857;2376;2621;3362;3788;4920;6220;6733
1498;-53.5859;-29.642;Silveira Martins;Sede Municipal;RIO GRANDE DO SUL;4478;6278;5903;4960;3857;2844;2357;2596;3357;3757;4879;6247;6703
1499;-53.4459;-29.614;São João do Polêsine;Sede Municipal;RIO GRANDE DO SUL;4483;6326;5909;4987;3856;2831;2351;2593;3344;3723;4895;6247;6739
1499;-53.4449;-29.575;Faxinal do Soturno;Sede Municipal;RIO GRANDE DO SUL;4483;6326;5909;4987;3856;2831;2351;2593;3344;3723;4895;6247;6739
1500;-53.3569;-29.622;Dona Francisca;Sede Municipal;RIO GRANDE DO SUL;4477;6350;5891;4990;3850;2825;2346;2585;3338;3701;4886;6230;6733
1501;-53.2519;-29.6452;Agudo;Sede Municipal;RIO GRANDE DO SUL;4472;6332;5880;4982;3841;2808;2348;2583;3347;3686;4884;6236;6742
1507;-52.6863;-29.6038;Vale do Sol;Sede Municipal;RIO GRANDE DO SUL;4347;6093;5694;4847;3776;2787;2329;2566;3270;3585;4686;6040;6491
1512;-52.1936;-29.6148;Venâncio Aires;Sede Municipal;RIO GRANDE DO SUL;4331;6041;5710;4784;3797;2786;2317;2538;3256;3588;4621;6070;6462
1514;-51.9375;-29.5972;Bom Retiro do Sul;Sede Municipal;RIO GRANDE DO SUL;4387;6245;5817;4845;3797;2801;2325;2548;3275;3615;4669;6156;6558
1515;-51.8222;-29.589;Fazenda Vilanova;Sede Municipal;RIO GRANDE DO SUL;4397;6308;5793;4882;3788;2803;2328;2538;3271;3607;4668;6183;6596
1517;-51.6827;-29.6435;Tabaí;Sede Municipal;RIO GRANDE DO SUL;4350;6173;5741;4822;3781;2785;2312;2534;3244;3555;4612;6113;6531
1518;-51.595;-29.5506;Brochier;Sede Municipal;RIO GRANDE DO SUL;4339;6183;5743;4821;3786;2793;2326;2532;3214;3533;4564;6092;6481
1519;-51.4202;-29.5512;Harmonia;Sede Municipal;RIO GRANDE DO SUL;4330;6152;5718;4809;3770;2800;2331;2527;3215;3539;4551;6086;6459
1520;-51.3753;-29.589;São Sebastião do Caí;Sede Municipal;RIO GRANDE DO SUL;4352;6174;5764;4822;3778;2815;2341;2533;3225;3542;4603;6108;6522
1520;-51.3979;-29.637;Pareci Novo;Sede Municipal;RIO GRANDE DO SUL;4352;6174;5764;4822;3778;2815;2341;2533;3225;3542;4603;6108;6522
1521;-51.2088;-29.595;Lindolfo Collor;Sede Municipal;RIO GRANDE DO SUL;4365;6210;5762;4841;3788;2824;2346;2538;3227;3548;4621;6105;6568
1522;-51.1538;-29.5999;Ivoti;Sede Municipal;RIO GRANDE DO SUL;4354;6220;5755;4791;3776;2816;2340;2534;3222;3538;4631;6081;6550
1523;-51.0902;-29.584;Dois Irmãos;Sede Municipal;RIO GRANDE DO SUL;4323;6200;5688;4720;3753;2808;2336;2535;3214;3508;4601;6035;6486
1523;-51.0069;-29.6354;Sapiranga;Sede Municipal;RIO GRANDE DO SUL;4323;6200;5688;4720;3753;2808;2336;2535;3214;3508;4601;6035;6486
1524;-50.9056;-29.5812;Nova Hartz;Sede Municipal;RIO GRANDE DO SUL;4281;6081;5596;4652;3732;2789;2338;2549;3224;3497;4557;5979;6375
1524;-50.9296;-29.6173;Araricá;Sede Municipal;RIO GRANDE DO SUL;4281;6081;5596;4652;3732;2789;2338;2549;3224;3497;4557;5979;6375
1525;-50.8349;-29.629;Parobé;Sede Municipal;RIO GRANDE DO SUL;4283;6063;5553;4648;3756;2800;2351;2553;3245;3524;4541;5997;6364
1526;-50.7923;-29.5698;Igrejinha;Sede Municipal;RIO GRANDE DO SUL;4323;6144;5618;4700;3785;2813;2357;2557;3252;3553;4603;6070;6428
1529;-50.4492;-29.6395;Riozinho;Sede Municipal;RIO GRANDE DO SUL;4266;6041;5466;4594;3763;2759;2339;2588;3257;3508;4570;5981;6326
1533;-50.0648;-29.5787;Terra de Areia;Sede Municipal;RIO GRANDE DO SUL;4167;5769;5246;4487;3792;2863;2429;2639;3288;3476;4311;5688;6013
1559;-54.6899;-29.497;Jaguari;Sede Municipal;RIO GRANDE DO SUL;4605;6571;5986;5089;3944;2928;2434;2686;3428;3910;5036;6352;6893
1563;-54.2249;-29.4787;Toropi;Sede Municipal;RIO GRANDE DO SUL;4567;6484;5952;5054;3932;2901;2412;2677;3418;3864;4997;6300;6819
1567;-53.8549;-29.538;São Martinho da Serra;Sede Municipal;RIO GRANDE DO SUL;4558;6436;5957;5018;3921;2921;2419;2687;3414;3871;5004;6283;6766
1570;-53.5809;-29.52;Ivorá;Sede Municipal;RIO GRANDE DO SUL;4500;6281;5920;5010;3871;2877;2369;2624;3381;3782;4906;6254;6722
1571;-53.4694;-29.4715;Nova Palma;Sede Municipal;RIO GRANDE DO SUL;4495;6278;5909;5001;3871;2865;2368;2627;3376;3753;4917;6245;6728
1575;-53.0139;-29.4893;Lagoa Bonita do Sul;Sede Municipal;RIO GRANDE DO SUL;4485;6228;5881;4959;3877;2863;2399;2647;3386;3710;4942;6228;6697
1579;-52.6505;-29.4543;Herveiras;Sede Municipal;RIO GRANDE DO SUL;4366;6107;5690;4801;3778;2809;2359;2607;3334;3605;4732;6071;6495
1580;-52.5219;-29.539;Sinimbu;Sede Municipal;RIO GRANDE DO SUL;4350;6096;5683;4779;3776;2806;2364;2600;3323;3589;4694;6029;6463
1584;-52.1282;-29.529;Mato Leitão;Sede Municipal;RIO GRANDE DO SUL;4305;5972;5628;4742;3782;2814;2342;2552;3286;3567;4581;6003;6391
1585;-52.0879;-29.469;Santa Clara do Sul;Sede Municipal;RIO GRANDE DO SUL;4341;6078;5709;4785;3794;2816;2336;2556;3287;3590;4620;6062;6456
1586;-51.9649;-29.4596;Lajeado;Sede Municipal;RIO GRANDE DO SUL;4362;6139;5756;4816;3794;2811;2330;2568;3280;3589;4640;6124;6499
1586;-51.9531;-29.4888;Estrela;Sede Municipal;RIO GRANDE DO SUL;4362;6139;5756;4816;3794;2811;2330;2568;3280;3589;4640;6124;6499
1586;-51.9849;-29.513;Cruzeiro do Sul;Sede Municipal;RIO GRANDE DO SUL;4362;6139;5756;4816;3794;2811;2330;2568;3280;3589;4640;6124;6499
1588;-51.7344;-29.549;Paverama;Sede Municipal;RIO GRANDE DO SUL;4363;6231;5727;4836;3783;2802;2325;2568;3267;3574;4627;6109;6508
1590;-51.5557;-29.5496;Maratá;Sede Municipal;RIO GRANDE DO SUL;4314;6149;5656;4749;3776;2784;2341;2566;3231;3523;4555;6035;6403
1591;-51.4878;-29.5423;São José do Sul;Sede Municipal;RIO GRANDE DO SUL;4291;6061;5617;4726;3756;2793;2341;2551;3237;3519;4510;6009;6372
1591;-51.4178;-29.4777;Tupandi;Sede Municipal;RIO GRANDE DO SUL;4291;6061;5617;4726;3756;2793;2341;2551;3237;3519;4510;6009;6372
1592;-51.3036;-29.4532;Feliz;Sede Municipal;RIO GRANDE DO SUL;4312;6094;5642;4743;3774;2812;2337;2554;3238;3524;4564;6044;6417
1592;-51.3552;-29.4861;Bom Princípio;Sede Municipal;RIO GRANDE DO SUL;4312;6094;5642;4743;3774;2812;2337;2554;3238;3524;4564;6044;6417
1593;-51.2007;-29.4684;Linha Nova;Sede Municipal;RIO GRANDE DO SUL;4345;6190;5709;4782;3790;2806;2346;2564;3241;3543;4591;6088;6488
1593;-51.2485;-29.5247;São José do Hortêncio;Sede Municipal;RIO GRANDE DO SUL;4345;6190;5709;4782;3790;2806;2346;2564;3241;3543;4591;6088;6488
1594;-51.1344;-29.4509;Picada Café;Sede Municipal;RIO GRANDE DO SUL;4364;6226;5735;4777;3795;2809;2356;2580;3260;3562;4651;6102;6516
1594;-51.1773;-29.5171;Presidente Lucena;Sede Municipal;RIO GRANDE DO SUL;4364;6226;5735;4777;3795;2809;2356;2580;3260;3562;4651;6102;6516
1595;-51.0816;-29.5384;Morro Reuter;Sede Municipal;RIO GRANDE DO SUL;4347;6216;5693;4719;3767;2804;2360;2587;3268;3559;4635;6062;6495
1596;-50.9886;-29.4912;Santa Maria do Herval;Sede Municipal;RIO GRANDE DO SUL;4291;6036;5559;4602;3738;2786;2365;2591;3275;3523;4607;6005;6400
1598;-50.7743;-29.5142;Três Coroas;Sede Municipal;RIO GRANDE DO SUL;4296;6031;5587;4644;3767;2802;2376;2591;3289;3531;4579;6008;6345
1604;-50.103;-29.4933;Itati;Sede Municipal;RIO GRANDE DO SUL;4056;5478;5001;4289;3708;2794;2408;2649;3327;3429;4257;5513;5821
1605;-50.0644;-29.537;Três Forquilhas;Sede Municipal;RIO GRANDE DO SUL;4060;5529;5067;4316;3725;2825;2405;2631;3310;3409;4195;5499;5808
1606;-49.9239;-29.456;Três Cachoeiras;Sede Municipal;RIO GRANDE DO SUL;4053;5532;5071;4335;3747;2886;2427;2623;3309;3414;4123;5469;5696
1607;-49.89;-29.5444;Arroio do Sal;Sede Municipal;RIO GRANDE DO SUL;4218;5837;5387;4550;3841;2948;2430;2630;3299;3514;4364;5737;6076
1627;-54.8298;-29.4071;Nova Esperança do Sul;Sede Municipal;RIO GRANDE DO SUL;4628;6542;6018;5118;3979;2930;2459;2733;3463;3982;5082;6374;6855
1635;-54.0719;-29.353;Quevedos;Sede Municipal;RIO GRANDE DO SUL;4562;6409;5943;5043;3935;2917;2426;2710;3452;3898;4985;6271;6752
1644;-53.13;-29.4208;Ibarama;Sede Municipal;RIO GRANDE DO SUL;4512;6252;5913;5041;3900;2877;2387;2658;3402;3746;4958;6273;6733
1645;-53.0331;-29.4199;Sobradinho;Sede Municipal;RIO GRANDE DO SUL;4522;6291;5937;5019;3911;2891;2406;2660;3417;3746;4972;6289;6726
1646;-52.9771;-29.3528;Segredo;Sede Municipal;RIO GRANDE DO SUL;4508;6219;5914;5025;3893;2878;2413;2666;3417;3726;4955;6276;6714
1646;-52.9653;-29.4474;Passa Sete;Sede Municipal;RIO GRANDE DO SUL;4508;6219;5914;5025;3893;2878;2413;2666;3417;3726;4955;6276;6714
1653;-52.2689;-29.383;Sério;Sede Municipal;RIO GRANDE DO SUL;4307;5974;5600;4724;3748;2803;2356;2593;3316;3583;4597;6017;6371
1655;-52.0985;-29.3832;Forquetinha;Sede Municipal;RIO GRANDE DO SUL;4346;6063;5706;4801;3782;2819;2350;2576;3304;3588;4653;6053;6455
1656;-51.9449;-29.401;Arroio do Meio;Sede Municipal;RIO GRANDE DO SUL;4344;6087;5721;4803;3778;2806;2333;2581;3296;3565;4639;6065;6449
1657;-51.8048;-29.4487;Teutônia;Sede Municipal;RIO GRANDE DO SUL;4370;6210;5772;4858;3770;2825;2330;2567;3294;3578;4665;6100;6468
1657;-51.8539;-29.3956;Colinas;Sede Municipal;RIO GRANDE DO SUL;4370;6210;5772;4858;3770;2825;2330;2567;3294;3578;4665;6100;6468
1658;-51.7649;-29.4268;Westfália;Sede Municipal;RIO GRANDE DO SUL;4358;6212;5714;4808;3775;2807;2334;2589;3298;3567;4643;6103;6450
1658;-51.7752;-29.3513;Imigrante;Sede Municipal;RIO GRANDE DO SUL;4358;6212;5714;4808;3775;2807;2334;2589;3298;3567;4643;6103;6450
1659;-51.6702;-29.3567;Boa Vista do Sul;Sede Municipal;RIO GRANDE DO SUL;4349;6205;5667;4763;3781;2812;2346;2600;3304;3560;4641;6086;6423
1659;-51.6724;-29.4486;Poço das Antas;Sede Municipal;RIO GRANDE DO SUL;4349;6205;5667;4763;3781;2812;2346;2600;3304;3560;4641;6086;6423
1660;-51.4993;-29.3764;Barão;Sede Municipal;RIO GRANDE DO SUL;4334;6143;5640;4720;3782;2800;2360;2610;3290;3556;4636;6042;6429
1660;-51.5115;-29.4419;Salvador do Sul;Sede Municipal;RIO GRANDE DO SUL;4334;6143;5640;4720;3782;2800;2360;2610;3290;3556;4636;6042;6429
1660;-51.5107;-29.4205;São Pedro da Serra;Sede Municipal;RIO GRANDE DO SUL;4334;6143;5640;4720;3782;2800;2360;2610;3290;3556;4636;6042;6429
1662;-51.3135;-29.3802;Alto Feliz;Sede Municipal;RIO GRANDE DO SUL;4309;6085;5590;4715;3779;2808;2356;2590;3283;3544;4577;6002;6379
1662;-51.3707;-29.3727;São Vendelino;Sede Municipal;RIO GRANDE DO SUL;4309;6085;5590;4715;3779;2808;2356;2590;3283;3544;4577;6002;6379
1663;-51.2569;-29.3904;Vale Real;Sede Municipal;RIO GRANDE DO SUL;4330;6143;5665;4740;3786;2799;2354;2600;3274;3551;4595;6041;6416
1664;-51.114;-29.3746;Nova Petrópolis;Sede Municipal;RIO GRANDE DO SUL;4339;6183;5678;4729;3776;2803;2352;2603;3276;3569;4629;6041;6430
1667;-50.8124;-29.3565;Canela;Sede Municipal;RIO GRANDE DO SUL;4290;5973;5553;4607;3756;2798;2380;2609;3318;3540;4615;5977;6358
1667;-50.8766;-29.3738;Gramado;Sede Municipal;RIO GRANDE DO SUL;4290;5973;5553;4607;3756;2798;2380;2609;3318;3540;4615;5977;6358
1670;-50.5839;-29.4479;São Francisco de Paula;Sede Municipal;RIO GRANDE DO SUL;4327;6050;5544;4594;3820;2813;2424;2665;3357;3594;4701;6014;6350
1676;-49.9349;-29.365;Morrinhos do Sul;Sede Municipal;RIO GRANDE DO SUL;3947;5303;4967;4219;3666;2845;2395;2617;3308;3367;3948;5224;5505
1677;-49.8497;-29.3695;Dom Pedro de Alcântara;Sede Municipal;RIO GRANDE DO SUL;4143;5656;5284;4456;3799;2925;2430;2646;3311;3475;4210;5604;5918
1703;-54.2242;-29.2927;Jari;Sede Municipal;RIO GRANDE DO SUL;4620;6487;6028;5117;3972;2974;2458;2761;3502;3947;5052;6335;6807
1712;-53.3386;-29.3353;Pinhal Grande;Sede Municipal;RIO GRANDE DO SUL;4550;6343;5971;5052;3898;2937;2406;2701;3467;3838;4979;6298;6708
1715;-53.0864;-29.3336;Arroio do Tigre;Sede Municipal;RIO GRANDE DO SUL;4544;6319;5975;5053;3913;2918;2422;2687;3455;3766;4982;6289;6750
1720;-52.58;-29.271;Gramado Xavier;Sede Municipal;RIO GRANDE DO SUL;4417;6165;5704;4872;3859;2847;2397;2668;3411;3640;4794;6126;6523
1721;-52.4289;-29.3051;Boqueirão do Leão;Sede Municipal;RIO GRANDE DO SUL;4400;6117;5692;4843;3844;2854;2398;2651;3397;3644;4750;6116;6488
1723;-52.2396;-29.3277;Canudos do Vale;Sede Municipal;RIO GRANDE DO SUL;4370;6116;5699;4808;3796;2823;2369;2632;3363;3630;4670;6062;6464
1725;-52.0537;-29.2981;Travesseiro;Sede Municipal;RIO GRANDE DO SUL;4351;6087;5708;4785;3789;2820;2354;2607;3329;3592;4658;6046;6438
1725;-52.0976;-29.3298;Marques de Souza;Sede Municipal;RIO GRANDE DO SUL;4351;6087;5708;4785;3789;2820;2354;2607;3329;3592;4658;6046;6438
1726;-51.9857;-29.2679;Capitão;Sede Municipal;RIO GRANDE DO SUL;4343;6072;5688;4770;3782;2817;2337;2593;3334;3603;4650;6050;6426
1727;-51.8708;-29.2894;Roca Sales;Sede Municipal;RIO GRANDE DO SUL;4376;6209;5741;4823;3775;2820;2323;2604;3327;3609;4700;6086;6502
1729;-51.6852;-29.27;Coronel Pilar;Sede Municipal;RIO GRANDE DO SUL;4392;6175;5715;4809;3812;2813;2358;2654;3369;3618;4731;6143;6509
1730;-51.5033;-29.2974;Carlos Barbosa;Sede Municipal;RIO GRANDE DO SUL;4386;6168;5688;4743;3824;2820;2386;2648;3376;3617;4730;6124;6506
1730;-51.5356;-29.2595;Garibaldi;Sede Municipal;RIO GRANDE DO SUL;4386;6168;5688;4743;3824;2820;2386;2648;3376;3617;4730;6124;6506
1748;-49.7337;-29.3339;Torres;Sede Municipal;RIO GRANDE DO SUL;4232;5850;5422;4581;3839;2964;2444;2658;3336;3525;4342;5735;6082
1768;-54.8671;-29.1901;Santiago;Sede Municipal;RIO GRANDE DO SUL;4682;6541;6064;5190;4036;2997;2466;2800;3513;4047;5170;6463;6898
1780;-53.6776;-29.2303;Júlio de Castilhos;Sede Municipal;RIO GRANDE DO SUL;4578;6374;5937;5062;3943;2948;2429;2739;3521;3909;5012;6300;6761
1785;-53.1589;-29.177;Estrela Velha;Sede Municipal;RIO GRANDE DO SUL;4548;6369;5954;5047;3904;2933;2420;2693;3485;3808;4967;6270;6728
1789;-52.772;-29.2231;Lagoão;Sede Municipal;RIO GRANDE DO SUL;4498;6227;5873;4952;3919;2895;2421;2696;3450;3733;4912;6256;6639
1793;-52.3112;-29.243;Progresso;Sede Municipal;RIO GRANDE DO SUL;4398;6135;5726;4855;3836;2845;2364;2635;3409;3651;4727;6089;6506
1794;-52.2079;-29.171;Pouso Novo;Sede Municipal;RIO GRANDE DO SUL;4370;6132;5695;4813;3803;2821;2358;2620;3375;3629;4679;6048;6469
1796;-52.0951;-29.1811;Coqueiro Baixo;Sede Municipal;RIO GRANDE DO SUL;4359;6123;5706;4782;3795;2826;2352;2622;3358;3627;4654;6045;6414
1796;-52.0279;-29.214;Nova Bréscia;Sede Municipal;RIO GRANDE DO SUL;4359;6123;5706;4782;3795;2826;2352;2622;3358;3627;4654;6045;6414
1798;-51.8747;-29.1668;Muçum;Sede Municipal;RIO GRANDE DO SUL;4390;6211;5753;4828;3805;2824;2353;2606;3342;3636;4722;6089;6511
1798;-51.8707;-29.2356;Encantado;Sede Municipal;RIO GRANDE DO SUL;4390;6211;5753;4828;3805;2824;2353;2606;3342;3636;4722;6089;6511
1799;-51.7355;-29.1659;Santa Tereza;Sede Municipal;RIO GRANDE DO SUL;4396;6193;5744;4824;3829;2822;2349;2637;3362;3640;4734;6115;6505
1800;-51.6337;-29.1612;Monte Belo do Sul;Sede Municipal;RIO GRANDE DO SUL;4410;6208;5744;4827;3837;2829;2361;2657;3381;3644;4765;6141;6529
1801;-51.5169;-29.1667;Bento Gonçalves;Sede Municipal;RIO GRANDE DO SUL;4419;6196;5772;4778;3838;2834;2386;2657;3400;3655;4789;6166;6563
1803;-51.3423;-29.2232;Farroupilha;Sede Municipal;RIO GRANDE DO SUL;4401;6197;5698;4744;3833;2822;2393;2668;3402;3660;4753;6160;6487
1805;-51.1796;-29.1634;Caxias do Sul;Sede Municipal;RIO GRANDE DO SUL;4361;6101;5643;4661;3803;2809;2384;2687;3389;3635;4727;6075;6415
1817;-49.935;-29.2109;Mampituba;Sede Municipal;RIO GRANDE DO SUL;3939;5175;4867;4198;3671;2854;2422;2658;3347;3379;3995;5238;5463
1823;-56.552;-29.1315;Itaqui;Sede Municipal;RIO GRANDE DO SUL;4820;6922;6265;5320;4126;3031;2506;2820;3607;4188;5427;6519;7107
1828;-56.0679;-29.1449;Maçambará;Sede Municipal;RIO GRANDE DO SUL;4792;6872;6258;5301;4061;3047;2499;2802;3584;4147;5389;6496;7044
1850;-53.8359;-29.081;Tupanciretã;Sede Municipal;RIO GRANDE DO SUL;4608;6456;5990;5102;3982;2986;2466;2755;3521;3940;5031;6327;6749
1856;-53.2138;-29.0955;Salto do Jacuí;Sede Municipal;RIO GRANDE DO SUL;4545;6378;5910;5045;3909;2954;2420;2704;3483;3816;4977;6250;6696
1859;-52.9543;-29.1044;Tunas;Sede Municipal;RIO GRANDE DO SUL;4549;6351;5921;5073;3912;2954;2429;2694;3491;3788;4984;6291;6703
1863;-52.5829;-29.093;Barros Cassal;Sede Municipal;RIO GRANDE DO SUL;4464;6234;5775;4933;3898;2905;2426;2690;3448;3725;4827;6173;6537
1868;-52.0796;-29.1164;Relvado;Sede Municipal;RIO GRANDE DO SUL;4354;6076;5674;4760;3787;2827;2359;2652;3389;3648;4659;6028;6394
1869;-51.9919;-29.086;Doutor Ricardo;Sede Municipal;RIO GRANDE DO SUL;4362;6104;5706;4772;3795;2819;2339;2632;3377;3653;4685;6061;6404
1870;-51.8589;-29.068;Vespasiano Corrêa;Sede Municipal;RIO GRANDE DO SUL;4394;6184;5748;4840;3806;2835;2364;2640;3379;3663;4709;6087;6476
1874;-51.453;-29.0974;Pinto Bandeira;Sede Municipal;RIO GRANDE DO SUL;4427;6226;5749;4823;3843;2859;2387;2661;3431;3683;4788;6167;6515
1908;-55.1499;-29.0469;Unistalda;Sede Municipal;RIO GRANDE DO SUL;4733;6595;6131;5231;4056;3045;2520;2844;3568;4084;5273;6501;6952
1929;-53.0594;-29.0339;Jacuizinho;Sede Municipal;RIO GRANDE DO SUL;4576;6413;5947;5075;3940;2965;2436;2719;3509;3844;5006;6307;6753
1936;-52.3449;-28.9821;Fontoura Xavier;Sede Municipal;RIO GRANDE DO SUL;4435;6109;5732;4854;3865;2891;2425;2720;3460;3724;4822;6136;6481
1937;-52.2959;-29.044;São José do Herval;Sede Municipal;RIO GRANDE DO SUL;4403;6082;5694;4818;3842;2867;2406;2707;3432;3682;4749;6094;6457
1938;-52.1574;-29.005;Putinga;Sede Municipal;RIO GRANDE DO SUL;4390;6087;5652;4789;3842;2857;2406;2709;3437;3683;4718;6063;6443
1939;-52.0106;-28.9702;Anta Gorda;Sede Municipal;RIO GRANDE DO SUL;4380;6064;5672;4786;3822;2842;2388;2691;3421;3696;4703;6067;6401
1941;-51.84;-28.9835;Dois Lajeados;Sede Municipal;RIO GRANDE DO SUL;4413;6178;5773;4857;3844;2854;2369;2686;3398;3687;4739;6104;6470
1942;-51.7649;-29.047;São Valentim do Sul;Sede Municipal;RIO GRANDE DO SUL;4417;6199;5755;4866;3844;2851;2370;2691;3402;3676;4745;6107;6498
1943;-51.6975;-28.9896;Cotiporã;Sede Municipal;RIO GRANDE DO SUL;4421;6197;5752;4868;3848;2857;2378;2698;3419;3678;4754;6107;6502
1945;-51.41;-28.9887;Nova Roma do Sul;Sede Municipal;RIO GRANDE DO SUL;4423;6192;5719;4864;3850;2854;2397;2682;3433;3687;4787;6138;6482
1946;-51.3069;-29.029;Nova Pádua;Sede Municipal;RIO GRANDE DO SUL;4429;6211;5734;4852;3846;2850;2401;2681;3440;3689;4811;6156;6476
1948;-51.1879;-29.0266;Flores da Cunha;Sede Municipal;RIO GRANDE DO SUL;4429;6164;5720;4792;3856;2864;2404;2720;3440;3704;4829;6185;6472
1949;-51.07;-28.9681;São Marcos;Sede Municipal;RIO GRANDE DO SUL;4434;6181;5710;4793;3857;2868;2411;2742;3445;3708;4839;6185;6467
1958;-50.1469;-29.0479;Cambará do Sul;Sede Municipal;RIO GRANDE DO SUL;4374;5940;5456;4680;3870;2898;2499;2810;3538;3685;4791;6032;6283
1985;-54.5563;-28.9317;Capão do Cipó;Sede Municipal;RIO GRANDE DO SUL;4678;6522;6082;5183;4002;3043;2488;2822;3567;4022;5155;6393;6859
2000;-53.0013;-28.8876;Campos Borges;Sede Municipal;RIO GRANDE DO SUL;4576;6373;5932;5084;3961;2980;2424;2731;3516;3864;5010;6306;6737
2009;-52.1263;-28.9287;Ilópolis;Sede Municipal;RIO GRANDE DO SUL;4413;6087;5689;4786;3855;2874;2412;2719;3474;3720;4776;6098;6460
2009;-52.1785;-28.8742;Arvorezinha;Sede Municipal;RIO GRANDE DO SUL;4413;6087;5689;4786;3855;2874;2412;2719;3474;3720;4776;6098;6460
2013;-51.7019;-28.8799;Fagundes Varela;Sede Municipal;RIO GRANDE DO SUL;4432;6225;5746;4850;3881;2873;2380;2711;3432;3706;4770;6114;6498
2015;-51.5508;-28.8603;Vila Flores;Sede Municipal;RIO GRANDE DO SUL;4421;6121;5693;4824;3854;2886;2429;2723;3455;3722;4782;6119;6444
2015;-51.5521;-28.9317;Veranópolis;Sede Municipal;RIO GRANDE DO SUL;4421;6121;5693;4824;3854;2886;2429;2723;3455;3722;4782;6119;6444
2018;-51.2887;-28.857;Antônio Prado;Sede Municipal;RIO GRANDE DO SUL;4427;6100;5704;4838;3858;2870;2421;2739;3457;3706;4805;6171;6450
2027;-50.3641;-28.8816;Jaquirana;Sede Municipal;RIO GRANDE DO SUL;4425;6049;5600;4775;3896;2908;2483;2789;3537;3716;4856;6108;6381
2050;-55.2451;-28.7917;Itacurubi;Sede Municipal;RIO GRANDE DO SUL;4728;6639;6127;5255;4021;3071;2516;2810;3601;4079;5256;6464;6906
2069;-53.3866;-28.8187;Boa Vista do Incra;Sede Municipal;RIO GRANDE DO SUL;4571;6344;5963;5076;3946;3011;2438;2768;3524;3889;5000;6233;6664
2070;-53.2254;-28.7991;Fortaleza dos Valos;Sede Municipal;RIO GRANDE DO SUL;4569;6400;5921;5059;3971;2996;2412;2744;3528;3893;4993;6247;6664
2073;-52.9897;-28.7773;Alto Alegre;Sede Municipal;RIO GRANDE DO SUL;4577;6352;5925;5076;3961;3017;2447;2736;3532;3859;5036;6293;6691
2077;-52.5135;-28.8311;Soledade;Sede Municipal;RIO GRANDE DO SUL;4556;6268;5852;5016;3958;2983;2463;2766;3526;3829;5033;6287;6690
2081;-52.1697;-28.7773;Itapuca;Sede Municipal;RIO GRANDE DO SUL;4452;6073;5771;4864;3899;2893;2431;2740;3495;3764;4843;6148;6499
2082;-52.0242;-28.7838;União da Serra;Sede Municipal;RIO GRANDE DO SUL;4451;6100;5802;4867;3876;2892;2416;2720;3472;3744;4828;6142;6551
2084;-51.89;-28.8404;Guaporé;Sede Municipal;RIO GRANDE DO SUL;4425;6088;5751;4824;3846;2876;2423;2715;3443;3731;4784;6116;6502
2085;-51.7951;-28.8057;Vista Alegre do Prata;Sede Municipal;RIO GRANDE DO SUL;4441;6155;5771;4827;3878;2894;2426;2737;3464;3729;4790;6127;6499
2086;-51.6117;-28.7804;Nova Prata;Sede Municipal;RIO GRANDE DO SUL;4439;6170;5768;4819;3882;2901;2424;2737;3467;3742;4774;6113;6470
2088;-51.4762;-28.7577;Protásio Alves;Sede Municipal;RIO GRANDE DO SUL;4430;6118;5666;4871;3883;2899;2427;2730;3463;3709;4808;6148;6443
2090;-51.2864;-28.8176;Ipê;Sede Municipal;RIO GRANDE DO SUL;4442;6063;5697;4842;3872;2888;2457;2760;3497;3736;4840;6178;6468
2092;-51.0946;-28.7931;Campestre da Serra;Sede Municipal;RIO GRANDE DO SUL;4418;6025;5651;4841;3830;2891;2437;2754;3485;3735;4836;6123;6409
2113;-56.0041;-28.6583;São Borja;Sede Municipal;RIO GRANDE DO SUL;4771;6834;6191;5273;4038;3055;2505;2827;3586;4130;5340;6466;7014
2124;-54.904;-28.7296;Bossoroca;Sede Municipal;RIO GRANDE DO SUL;4713;6598;6117;5254;4026;3068;2515;2843;3599;4058;5196;6419;6865
2143;-53.0949;-28.742;Quinze de Novembro;Sede Municipal;RIO GRANDE DO SUL;4587;6406;5959;5060;3991;3025;2466;2761;3535;3881;5036;6269;6656
2145;-52.8465;-28.7291;Espumoso;Sede Municipal;RIO GRANDE DO SUL;4576;6336;5942;5031;3981;3007;2464;2758;3549;3852;5039;6273;6679
2147;-52.6919;-28.692;Mormaço;Sede Municipal;RIO GRANDE DO SUL;4560;6282;5862;5025;3970;3014;2462;2766;3536;3847;5033;6270;6653
2152;-52.1635;-28.6827;Nova Alvorada;Sede Municipal;RIO GRANDE DO SUL;4500;6171;5838;4907;3937;2921;2443;2750;3530;3783;4916;6185;6620
2154;-51.9357;-28.7131;Serafina Corrêa;Sede Municipal;RIO GRANDE DO SUL;4465;6117;5822;4851;3903;2898;2454;2744;3495;3763;4850;6135;6544
2156;-51.7463;-28.6542;Nova Araçá;Sede Municipal;RIO GRANDE DO SUL;4452;6123;5738;4860;3920;2907;2471;2765;3490;3744;4818;6126;6462
2156;-51.7076;-28.7296;Nova Bassano;Sede Municipal;RIO GRANDE DO SUL;4452;6123;5738;4860;3920;2907;2471;2765;3490;3744;4818;6126;6462
2166;-50.7838;-28.681;Monte Alegre dos Campos;Sede Municipal;RIO GRANDE DO SUL;4428;5996;5627;4787;3913;2921;2469;2795;3560;3763;4862;6100;6339
2169;-50.4299;-28.6702;Bom Jesus;Sede Municipal;RIO GRANDE DO SUL;4432;6030;5617;4780;3895;2922;2475;2805;3547;3790;4885;6080;6354
2173;-50.0682;-28.7481;São José dos Ausentes;Sede Municipal;RIO GRANDE DO SUL;4451;5977;5529;4790;3956;2960;2550;2861;3630;3804;4885;6093;6381
2200;-54.5563;-28.5565;São Miguel das Missões;Sede Municipal;RIO GRANDE DO SUL;4669;6530;6042;5211;4029;3049;2501;2795;3580;4013;5142;6373;6757
2204;-54.1146;-28.644;Jóia;Sede Municipal;RIO GRANDE DO SUL;4656;6512;6038;5215;4037;3046;2507;2804;3562;3977;5097;6334;6748
2207;-53.8113;-28.5795;Boa Vista do Cadeado;Sede Municipal;RIO GRANDE DO SUL;4633;6456;6046;5125;4030;3054;2492;2788;3564;3953;5071;6300;6719
2209;-53.6053;-28.6455;Cruz Alta;Sede Municipal;RIO GRANDE DO SUL;4601;6384;6023;5103;3991;3036;2481;2794;3556;3919;5030;6224;6669
2215;-53.0966;-28.6306;Ibirubá;Sede Municipal;RIO GRANDE DO SUL;4578;6367;5945;5060;3963;3021;2479;2758;3554;3877;5025;6259;6624
2216;-52.9502;-28.6299;Selbach;Sede Municipal;RIO GRANDE DO SUL;4580;6332;5903;5028;3995;3039;2474;2796;3568;3879;5033;6251;6664
2217;-52.8629;-28.5688;Lagoa dos Três Cantos;Sede Municipal;RIO GRANDE DO SUL;4580;6334;5902;5021;3984;3032;2479;2787;3568;3864;5049;6273;6665
2217;-52.8699;-28.626;Tapera;Sede Municipal;RIO GRANDE DO SUL;4580;6334;5902;5021;3984;3032;2479;2787;3568;3864;5049;6273;6665
2218;-52.75;-28.5636;Victor Graeff;Sede Municipal;RIO GRANDE DO SUL;4572;6354;5916;5011;3969;3015;2483;2776;3556;3843;5030;6270;6643
2220;-52.596;-28.5717;Tio Hugo;Sede Municipal;RIO GRANDE DO SUL;4559;6285;5871;5011;3990;3007;2467;2772;3555;3828;5024;6261;6637
2220;-52.5109;-28.624;Ibirapuitã;Sede Municipal;RIO GRANDE DO SUL;4559;6285;5871;5011;3990;3007;2467;2772;3555;3828;5024;6261;6637
2223;-52.2007;-28.5885;Camargo;Sede Municipal;RIO GRANDE DO SUL;4526;6232;5840;4943;3952;2965;2464;2765;3538;3820;4978;6197;6615
2225;-52.0772;-28.6466;Montauri;Sede Municipal;RIO GRANDE DO SUL;4482;6146;5777;4894;3939;2922;2471;2769;3510;3774;4904;6114;6566
2226;-51.9819;-28.561;Casca;Sede Municipal;RIO GRANDE DO SUL;4462;6107;5770;4866;3914;2914;2477;2782;3498;3759;4869;6083;6512
2228;-51.7901;-28.5969;Paraí;Sede Municipal;RIO GRANDE DO SUL;4458;6107;5709;4878;3945;2901;2467;2774;3499;3755;4865;6122;6469
2230;-51.5802;-28.6288;André da Rocha;Sede Municipal;RIO GRANDE DO SUL;4445;6105;5653;4837;3887;2932;2464;2800;3502;3764;4856;6132;6403
2267;-55.2279;-28.511;Santo Antônio das Missões;Sede Municipal;RIO GRANDE DO SUL;4735;6650;6179;5271;4041;3097;2521;2841;3600;4106;5224;6437;6855
2278;-54.1511;-28.5319;Eugênio de Castro;Sede Municipal;RIO GRANDE DO SUL;4658;6499;6073;5190;4033;3060;2518;2806;3571;3999;5117;6299;6738
2280;-53.9888;-28.5177;Augusto Pestana;Sede Municipal;RIO GRANDE DO SUL;4643;6480;6054;5172;4028;3059;2500;2793;3572;3966;5085;6297;6714
2290;-52.9933;-28.5263;Colorado;Sede Municipal;RIO GRANDE DO SUL;4578;6338;5888;5013;4000;3037;2502;2811;3570;3872;5037;6242;6621
2291;-52.8186;-28.4552;Não-Me-Toque;Sede Municipal;RIO GRANDE DO SUL;4577;6341;5886;5005;4005;3038;2497;2818;3560;3867;5033;6250;6621
2294;-52.5841;-28.4983;Ernestina;Sede Municipal;RIO GRANDE DO SUL;4550;6287;5856;4985;3980;3014;2469;2790;3553;3831;5001;6224;6610
2295;-52.4681;-28.5303;Nicolau Vergueiro;Sede Municipal;RIO GRANDE DO SUL;4553;6285;5870;4994;3999;2988;2469;2782;3561;3832;5006;6219;6627
2298;-52.1491;-28.5363;Vila Maria;Sede Municipal;RIO GRANDE DO SUL;4505;6171;5765;4931;3968;2973;2483;2787;3520;3795;4947;6162;6558
2299;-52.0272;-28.496;Santo Antônio do Palma;Sede Municipal;RIO GRANDE DO SUL;4485;6137;5741;4900;3954;2958;2488;2791;3516;3782;4926;6124;6500
2301;-51.8452;-28.4763;Vanini;Sede Municipal;RIO GRANDE DO SUL;4467;6128;5699;4891;3955;2928;2480;2796;3510;3773;4881;6098;6465
2301;-51.8864;-28.5316;São Domingos do Sul;Sede Municipal;RIO GRANDE DO SUL;4467;6128;5699;4891;3955;2928;2480;2796;3510;3773;4881;6098;6465
2302;-51.7069;-28.4989;São Jorge;Sede Municipal;RIO GRANDE DO SUL;4463;6099;5682;4860;3948;2929;2496;2799;3523;3771;4889;6114;6448
2303;-51.6953;-28.5426;Guabiju;Sede Municipal;RIO GRANDE DO SUL;4460;6068;5672;4841;3947;2940;2514;2806;3516;3767;4888;6127;6427
2310;-50.9422;-28.5083;Vacaria;Sede Municipal;RIO GRANDE DO SUL;4442;6043;5671;4783;3877;2941;2500;2802;3592;3812;4870;6093;6328
2343;-54.9609;-28.408;São Luiz Gonzaga;Sede Municipal;RIO GRANDE DO SUL;4701;6572;6119;5238;4043;3088;2517;2836;3593;4063;5158;6381;6806
2348;-54.4959;-28.351;Vitória das Missões;Sede Municipal;RIO GRANDE DO SUL;4681;6554;6113;5192;4051;3064;2508;2818;3596;4020;5135;6358;6759
2350;-54.2679;-28.36;Entre-Ijuís;Sede Municipal;RIO GRANDE DO SUL;4657;6504;6055;5182;4036;3066;2516;2803;3559;3991;5138;6301;6735
2352;-54.0659;-28.383;Coronel Barros;Sede Municipal;RIO GRANDE DO SUL;4647;6508;6042;5192;4015;3053;2509;2798;3575;3978;5112;6285;6702
2353;-53.9204;-28.3885;Ijuí;Sede Municipal;RIO GRANDE DO SUL;4637;6480;6022;5178;4012;3046;2500;2796;3573;3958;5100;6293;6691
2355;-53.7724;-28.3664;Bozano;Sede Municipal;RIO GRANDE DO SUL;4620;6451;6011;5145;3992;3052;2500;2796;3576;3947;5074;6233;6665
2356;-53.6559;-28.423;Pejuçara;Sede Municipal;RIO GRANDE DO SUL;4608;6428;5964;5120;3991;3054;2505;2812;3559;3926;5074;6216;6650
2360;-53.2515;-28.3658;Santa Bárbara do Sul;Sede Municipal;RIO GRANDE DO SUL;4587;6379;5923;5031;4013;3037;2509;2823;3571;3881;5051;6203;6622
2362;-53.0975;-28.3946;Saldanha Marinho;Sede Municipal;RIO GRANDE DO SUL;4581;6343;5922;5040;3994;3044;2501;2816;3573;3864;5036;6218;6621
2366;-52.6909;-28.396;Santo Antônio do Planalto;Sede Municipal;RIO GRANDE DO SUL;4559;6273;5867;4989;3993;3023;2495;2823;3572;3850;5005;6205;6613
2370;-52.1991;-28.4502;Marau;Sede Municipal;RIO GRANDE DO SUL;4524;6191;5759;4923;3990;2995;2487;2817;3555;3822;4989;6209;6556
2372;-52.0341;-28.4321;Gentil;Sede Municipal;RIO GRANDE DO SUL;4504;6136;5748;4926;3976;2971;2514;2809;3555;3806;4954;6152;6499
2374;-51.8487;-28.3854;David Canabarro;Sede Municipal;RIO GRANDE DO SUL;4480;6125;5664;4889;3965;2959;2498;2821;3557;3798;4913;6120;6446
2376;-51.6381;-28.3746;Ibiraiaras;Sede Municipal;RIO GRANDE DO SUL;4481;6086;5702;4859;3966;2966;2534;2828;3555;3793;4894;6137;6447
2415;-54.8191;-28.257;Rolador;Sede Municipal;RIO GRANDE DO SUL;4702;6605;6137;5220;4061;3086;2531;2833;3590;4050;5157;6373;6779
2417;-54.6163;-28.2562;Mato Queimado;Sede Municipal;RIO GRANDE DO SUL;4689;6559;6126;5221;4070;3082;2521;2804;3589;4037;5153;6352;6759
2417;-54.6379;-28.288;Caibaté;Sede Municipal;RIO GRANDE DO SUL;4689;6559;6126;5221;4070;3082;2521;2804;3589;4037;5153;6352;6759
2421;-54.2672;-28.3006;Santo Ângelo;Sede Municipal;RIO GRANDE DO SUL;4645;6463;5987;5176;4011;3074;2518;2815;3562;3992;5148;6279;6708
2423;-54.0137;-28.2558;Catuípe;Sede Municipal;RIO GRANDE DO SUL;4637;6497;6041;5148;4009;3049;2518;2802;3574;3981;5110;6263;6655
2428;-53.5027;-28.2838;Panambi;Sede Municipal;RIO GRANDE DO SUL;4610;6378;5935;5108;4031;3061;2510;2805;3595;3931;5114;6223;6629
2436;-52.7937;-28.2963;Carazinho;Sede Municipal;RIO GRANDE DO SUL;4565;6223;5880;5007;4032;3037;2512;2812;3585;3863;5037;6230;6566
2439;-52.4096;-28.258;Passo Fundo;Sede Municipal;RIO GRANDE DO SUL;4553;6266;5807;4945;4004;3008;2512;2825;3589;3837;5042;6221;6582
2442;-52.1937;-28.2805;Mato Castelhano;Sede Municipal;RIO GRANDE DO SUL;4514;6161;5748;4904;3982;2995;2502;2831;3585;3835;4967;6146;6509
2445;-51.8746;-28.3424;Ciríaco;Sede Municipal;RIO GRANDE DO SUL;4510;6177;5675;4899;3991;3004;2520;2836;3593;3815;4950;6181;6480
2446;-51.7701;-28.3258;Muliterno;Sede Municipal;RIO GRANDE DO SUL;4508;6130;5697;4908;4003;2993;2538;2845;3597;3807;4927;6163;6491
2447;-51.6866;-28.2586;Caseiros;Sede Municipal;RIO GRANDE DO SUL;4499;6077;5705;4897;4001;2980;2531;2842;3586;3822;4916;6145;6478
2452;-51.184;-28.3137;Muitos Capões;Sede Municipal;RIO GRANDE DO SUL;4479;6063;5698;4810;3926;2951;2530;2852;3623;3872;4915;6106;6408
2479;-55.6388;-28.1949;Garruchos;Sede Municipal;RIO GRANDE DO SUL;4738;6700;6135;5271;4032;3096;2532;2841;3608;4133;5223;6418;6865
2483;-55.2659;-28.1838;São Nicolau;Sede Municipal;RIO GRANDE DO SUL;4723;6613;6123;5269;4055;3097;2542;2856;3614;4098;5197;6403;6813
2485;-55.0482;-28.2252;Dezesseis de Novembro;Sede Municipal;RIO GRANDE DO SUL;4705;6547;6073;5274;4058;3095;2531;2843;3600;4069;5172;6405;6796
2498;-53.7709;-28.239;Ajuricaba;Sede Municipal;RIO GRANDE DO SUL;4617;6418;6002;5104;4020;3085;2531;2821;3605;3945;5092;6181;6604
2501;-53.491;-28.208;Condor;Sede Municipal;RIO GRANDE DO SUL;4595;6323;5923;5087;4015;3059;2538;2830;3584;3921;5098;6171;6591
2515;-52.0315;-28.1677;Água Santa;Sede Municipal;RIO GRANDE DO SUL;4542;6221;5733;4939;4017;3009;2513;2852;3646;3869;5011;6185;6506
2516;-51.9284;-28.1613;Santa Cecília do Sul;Sede Municipal;RIO GRANDE DO SUL;4533;6205;5726;4931;4005;2994;2515;2862;3648;3854;4978;6178;6505
2520;-51.5253;-28.2098;Lagoa Vermelha;Sede Municipal;RIO GRANDE DO SUL;4509;6107;5726;4907;3974;2997;2518;2873;3627;3832;4925;6168;6459
2556;-55.0271;-28.1301;Roque Gonzales;Sede Municipal;RIO GRANDE DO SUL;4703;6608;6119;5218;4066;3072;2542;2832;3631;4057;5142;6371;6780
2558;-54.8378;-28.1238;Salvador das Missões;Sede Municipal;RIO GRANDE DO SUL;4696;6604;6094;5206;4076;3096;2531;2848;3612;4038;5139;6355;6758
2558;-54.8869;-28.124;São Pedro do Butiá;Sede Municipal;RIO GRANDE DO SUL;4696;6604;6094;5206;4076;3096;2531;2848;3612;4038;5139;6355;6758
2559;-54.7433;-28.1467;Cerro Largo;Sede Municipal;RIO GRANDE DO SUL;4685;6535;6070;5191;4085;3102;2535;2848;3611;4033;5139;6351;6727
2561;-54.5579;-28.141;Guarani das Missões;Sede Municipal;RIO GRANDE DO SUL;4680;6534;6096;5159;4060;3096;2539;2844;3632;4029;5141;6306;6718
2562;-54.4629;-28.131;Sete de Setembro;Sede Municipal;RIO GRANDE DO SUL;4680;6532;6066;5153;4061;3104;2552;2864;3638;4030;5146;6308;6708
2569;-53.6996;-28.0672;Nova Ramada;Sede Municipal;RIO GRANDE DO SUL;4626;6375;6017;5090;4035;3088;2585;2846;3630;3958;5108;6170;6614
2576;-53.067;-28.0563;Chapada;Sede Municipal;RIO GRANDE DO SUL;4609;6315;5914;5044;4050;3065;2534;2862;3651;3915;5105;6252;6600
2577;-52.9147;-28.1154;Almirante Tamandaré do Sul;Sede Municipal;RIO GRANDE DO SUL;4613;6338;5916;5018;4078;3076;2552;2865;3643;3883;5094;6255;6631
2579;-52.7847;-28.1199;Coqueiros do Sul;Sede Municipal;RIO GRANDE DO SUL;4588;6346;5840;5010;4044;3054;2542;2851;3625;3875;5071;6207;6588
2580;-52.6795;-28.059;Pontão;Sede Municipal;RIO GRANDE DO SUL;4578;6331;5841;4956;4066;3051;2539;2852;3624;3876;5059;6188;6559
2583;-52.3028;-28.1284;Coxilha;Sede Municipal;RIO GRANDE DO SUL;4564;6243;5829;4996;4038;3034;2515;2882;3637;3873;5029;6199;6494
2585;-52.1442;-28.1067;Vila Lângaro;Sede Municipal;RIO GRANDE DO SUL;4550;6226;5817;4933;4027;3033;2513;2852;3642;3889;5009;6160;6500
2586;-52.0101;-28.0657;Tapejara;Sede Municipal;RIO GRANDE DO SUL;4554;6228;5796;4965;4024;3018;2532;2858;3646;3880;5004;6184;6521
2588;-51.8603;-28.057;Ibiaçá;Sede Municipal;RIO GRANDE DO SUL;4550;6229;5738;4975;4022;3003;2518;2864;3643;3863;4996;6211;6543
2593;-51.3965;-28.1259;Capão Bonito do Sul;Sede Municipal;RIO GRANDE DO SUL;4528;6197;5797;4923;3946;2988;2584;2872;3647;3886;4933;6141;6428
2595;-51.1937;-28.0522;Esmeralda;Sede Municipal;RIO GRANDE DO SUL;4505;6178;5703;4886;3941;2980;2563;2879;3646;3873;4914;6128;6375
2622;-55.2006;-28.0444;Pirapó;Sede Municipal;RIO GRANDE DO SUL;4702;6612;6092;5242;4049;3098;2512;2821;3604;4076;5182;6373;6763
2625;-54.9359;-28.021;São Paulo das Missões;Sede Municipal;RIO GRANDE DO SUL;4695;6569;6071;5208;4069;3093;2535;2851;3630;4046;5151;6354;6756
2626;-54.8421;-27.9893;Campina das Missões;Sede Municipal;RIO GRANDE DO SUL;4686;6557;6045;5184;4071;3097;2535;2858;3629;4039;5149;6329;6744
2627;-54.7522;-27.952;Cândido Godói;Sede Municipal;RIO GRANDE DO SUL;4680;6509;6034;5179;4075;3113;2540;2859;3624;4036;5155;6314;6724
2628;-54.6809;-28.046;Ubiretama;Sede Municipal;RIO GRANDE DO SUL;4677;6502;6045;5167;4085;3108;2538;2853;3631;4032;5145;6302;6715
2629;-54.5512;-28.0255;Senador Salgado Filho;Sede Municipal;RIO GRANDE DO SUL;4685;6512;6075;5162;4086;3114;2541;2858;3646;4046;5157;6313;6710
2631;-54.3521;-28.0301;Giruá;Sede Municipal;RIO GRANDE DO SUL;4686;6525;6076;5155;4076;3111;2564;2866;3659;4030;5171;6297;6705
2645;-52.9788;-27.9931;Nova Boa Vista;Sede Municipal;RIO GRANDE DO SUL;4623;6306;5924;5046;4102;3073;2571;2877;3644;3901;5127;6258;6651
2652;-52.2592;-27.9803;Sertão;Sede Municipal;RIO GRANDE DO SUL;4565;6242;5820;4961;4026;3046;2527;2891;3661;3910;5039;6160;6501
2692;-55.1384;-27.9086;Porto Xavier;Sede Municipal;RIO GRANDE DO SUL;4680;6595;6054;5215;4039;3092;2512;2821;3600;4048;5137;6320;6732
2693;-55.0105;-27.8573;Porto Lucena;Sede Municipal;RIO GRANDE DO SUL;4677;6546;6050;5197;4042;3100;2524;2831;3596;4055;5131;6331;6726
2699;-54.4801;-27.8707;Santa Rosa;Sede Municipal;RIO GRANDE DO SUL;4679;6486;6048;5165;4092;3108;2547;2845;3642;4036;5168;6296;6709
2703;-54.0154;-27.8757;Inhacorá;Sede Municipal;RIO GRANDE DO SUL;4677;6488;6020;5166;4087;3100;2563;2866;3677;4004;5174;6260;6715
2704;-53.9423;-27.9235;Chiapetta;Sede Municipal;RIO GRANDE DO SUL;4661;6459;6013;5113;4071;3102;2572;2882;3682;3989;5145;6215;6692
2706;-53.7781;-27.853;Santo Augusto;Sede Municipal;RIO GRANDE DO SUL;4650;6395;5989;5078;4057;3116;2577;2903;3685;3989;5146;6199;6671
2710;-53.3138;-27.9011;Palmeira das Missões;Sede Municipal;RIO GRANDE DO SUL;4637;6399;5958;5008;4040;3111;2592;2910;3677;3973;5128;6204;6639
2712;-53.1107;-27.9082;Novo Barreiro;Sede Municipal;RIO GRANDE DO SUL;4634;6367;5928;5048;4085;3099;2567;2899;3653;3967;5126;6241;6633
2713;-53.0395;-27.9209;Barra Funda;Sede Municipal;RIO GRANDE DO SUL;4648;6391;5963;5095;4105;3087;2555;2899;3655;3937;5134;6278;6671
2714;-52.9235;-27.9425;Sarandi;Sede Municipal;RIO GRANDE DO SUL;4636;6354;5958;5053;4106;3085;2571;2905;3668;3920;5124;6240;6647
2719;-52.4276;-27.9408;Ipiranga do Sul;Sede Municipal;RIO GRANDE DO SUL;4587;6276;5840;4967;4060;3076;2580;2917;3687;3910;5052;6135;6541
2720;-52.3009;-27.8549;Erebango;Sede Municipal;RIO GRANDE DO SUL;4579;6285;5816;4947;4038;3058;2582;2907;3678;3922;5039;6153;6528
2721;-52.2298;-27.8916;Getúlio Vargas;Sede Municipal;RIO GRANDE DO SUL;4568;6259;5797;4941;4022;3043;2560;2901;3673;3918;5041;6158;6501
2721;-52.264;-27.9139;Estação;Sede Municipal;RIO GRANDE DO SUL;4568;6259;5797;4941;4022;3043;2560;2901;3673;3918;5041;6158;6501
2723;-52.0155;-27.9497;Charrua;Sede Municipal;RIO GRANDE DO SUL;4559;6222;5765;4981;4049;3042;2527;2866;3652;3903;5015;6175;6505
2723;-52.0842;-27.8619;Floriano Peixoto;Sede Municipal;RIO GRANDE DO SUL;4559;6222;5765;4981;4049;3042;2527;2866;3652;3903;5015;6175;6505
2725;-51.8084;-27.9475;Sananduva;Sede Municipal;RIO GRANDE DO SUL;4579;6260;5780;5010;4078;3026;2564;2887;3661;3896;5014;6243;6535
2727;-51.6438;-27.9079;Santo Expedito do Sul;Sede Municipal;RIO GRANDE DO SUL;4581;6293;5782;4977;4042;3021;2594;2907;3692;3910;5001;6223;6523
2728;-51.5387;-27.9246;Tupanci do Sul;Sede Municipal;RIO GRANDE DO SUL;4567;6272;5759;4964;4029;3022;2594;2899;3693;3912;4981;6200;6480
2732;-51.1678;-27.8756;Pinhal da Serra;Sede Municipal;RIO GRANDE DO SUL;4508;6118;5713;4911;3980;2976;2580;2869;3648;3876;4896;6132;6396
2764;-54.6624;-27.8267;Santo Cristo;Sede Municipal;RIO GRANDE DO SUL;4669;6486;6001;5166;4086;3095;2519;2827;3653;4039;5168;6269;6713
2766;-54.4819;-27.7602;Tuparendi;Sede Municipal;RIO GRANDE DO SUL;4678;6497;6026;5161;4089;3099;2554;2843;3661;4039;5186;6276;6704
2768;-54.2362;-27.7805;Três de Maio;Sede Municipal;RIO GRANDE DO SUL;4675;6503;6051;5125;4085;3112;2563;2869;3672;4023;5183;6225;6689
2769;-54.1891;-27.8359;Independência;Sede Municipal;RIO GRANDE DO SUL;4684;6522;6042;5147;4087;3110;2567;2871;3668;4003;5210;6281;6697
2770;-54.0562;-27.8349;Alegria;Sede Municipal;RIO GRANDE DO SUL;4677;6476;6003;5142;4090;3107;2579;2875;3691;3994;5200;6261;6706
2771;-53.9372;-27.7911;São Valério do Sul;Sede Municipal;RIO GRANDE DO SUL;4660;6449;6002;5095;4070;3100;2583;2888;3696;3982;5160;6215;6683
2778;-53.2518;-27.771;São Pedro das Missões;Sede Municipal;RIO GRANDE DO SUL;4636;6387;5888;5026;4098;3105;2581;2913;3675;3981;5131;6214;6640
2779;-53.1231;-27.7794;São José das Missões;Sede Municipal;RIO GRANDE DO SUL;4644;6373;5917;5059;4115;3100;2569;2908;3664;3965;5136;6251;6674
2781;-52.9086;-27.8319;Rondinha;Sede Municipal;RIO GRANDE DO SUL;4642;6350;5940;5073;4104;3102;2577;2925;3679;3937;5134;6228;6657
2782;-52.806;-27.7763;Ronda Alta;Sede Municipal;RIO GRANDE DO SUL;4629;6332;5919;5055;4090;3092;2579;2920;3676;3930;5135;6194;6629
2786;-52.4429;-27.8262;Quatro Irmãos;Sede Municipal;RIO GRANDE DO SUL;4592;6252;5819;4991;4066;3072;2587;2913;3711;3925;5082;6146;6541
2791;-51.9989;-27.762;Centenário;Sede Municipal;RIO GRANDE DO SUL;4569;6195;5749;4994;4069;3049;2536;2885;3670;3921;5047;6201;6510
2792;-51.8261;-27.82;São João da Urtiga;Sede Municipal;RIO GRANDE DO SUL;4586;6262;5772;5021;4080;3030;2568;2887;3682;3911;5040;6250;6532
2794;-51.6601;-27.7675;Cacique Doble;Sede Municipal;RIO GRANDE DO SUL;4593;6298;5779;4982;4060;3040;2609;2920;3713;3923;5038;6228;6528
2795;-51.5971;-27.7712;São José do Ouro;Sede Municipal;RIO GRANDE DO SUL;4572;6291;5778;4957;4027;3020;2592;2914;3713;3921;4997;6174;6484
2827;-54.8998;-27.741;Porto Vera Cruz;Sede Municipal;RIO GRANDE DO SUL;4651;6471;5956;5176;4070;3097;2518;2816;3636;4025;5146;6244;6650
2829;-54.7653;-27.6583;Alecrim;Sede Municipal;RIO GRANDE DO SUL;4665;6492;5982;5161;4075;3088;2521;2838;3648;4037;5188;6240;6712
2832;-54.4443;-27.6578;Tucunduva;Sede Municipal;RIO GRANDE DO SUL;4663;6508;5988;5139;4067;3089;2542;2852;3656;4035;5195;6239;6648
2835;-54.1087;-27.6697;Boa Vista do Buricá;Sede Municipal;RIO GRANDE DO SUL;4685;6532;5998;5163;4096;3125;2557;2864;3700;4000;5227;6268;6692
2835;-54.1279;-27.7255;São José do Inhacorá;Sede Municipal;RIO GRANDE DO SUL;4685;6532;5998;5163;4096;3125;2557;2864;3700;4000;5227;6268;6692
2837;-53.9704;-27.7116;São Martinho;Sede Municipal;RIO GRANDE DO SUL;4663;6465;5982;5116;4079;3114;2589;2898;3685;3978;5182;6201;6667
2838;-53.8057;-27.6797;Campo Novo;Sede Municipal;RIO GRANDE DO SUL;4660;6458;5993;5104;4064;3123;2586;2915;3706;3990;5169;6204;6610
2839;-53.7046;-27.7222;Coronel Bicaco;Sede Municipal;RIO GRANDE DO SUL;4662;6461;5974;5105;4064;3126;2582;2911;3699;3995;5171;6225;6633
2840;-53.6411;-27.6644;Redentora;Sede Municipal;RIO GRANDE DO SUL;4649;6434;5947;5068;4055;3114;2587;2917;3688;3988;5149;6200;6646
2841;-53.5309;-27.6626;Dois Irmãos das Missões;Sede Municipal;RIO GRANDE DO SUL;4653;6448;5922;5068;4080;3117;2579;2927;3706;3989;5170;6193;6642
2843;-53.3106;-27.6676;Boa Vista das Missões;Sede Municipal;RIO GRANDE DO SUL;4645;6380;5902;5046;4077;3116;2585;2937;3707;3981;5139;6222;6642
2845;-53.1355;-27.709;Sagrada Família;Sede Municipal;RIO GRANDE DO SUL;4653;6377;5883;5090;4112;3110;2563;2914;3688;3971;5147;6271;6710
2845;-53.1823;-27.6918;Lajeado do Bugre;Sede Municipal;RIO GRANDE DO SUL;4653;6377;5883;5090;4112;3110;2563;2914;3688;3971;5147;6271;6710
2846;-53.0644;-27.7495;Novo Xingu;Sede Municipal;RIO GRANDE DO SUL;4653;6335;5924;5133;4115;3113;2570;2895;3669;3957;5160;6267;6701
2847;-52.915;-27.7065;Engenho Velho;Sede Municipal;RIO GRANDE DO SUL;4639;6277;5897;5082;4109;3110;2591;2930;3695;3958;5147;6225;6647
2847;-52.9943;-27.7324;Constantina;Sede Municipal;RIO GRANDE DO SUL;4639;6277;5897;5082;4109;3110;2591;2930;3695;3958;5147;6225;6647
2850;-52.6526;-27.6676;Cruzaltense;Sede Municipal;RIO GRANDE DO SUL;4635;6368;5939;5039;4087;3088;2596;2912;3730;3961;5119;6170;6610
2850;-52.6253;-27.7179;Campinas do Sul;Sede Municipal;RIO GRANDE DO SUL;4635;6368;5939;5039;4087;3088;2596;2912;3730;3961;5119;6170;6610
2851;-52.5377;-27.7296;Jacutinga;Sede Municipal;RIO GRANDE DO SUL;4613;6280;5854;5034;4079;3081;2596;2920;3728;3945;5098;6166;6573
2852;-52.4174;-27.7056;Paulo Bento;Sede Municipal;RIO GRANDE DO SUL;4592;6222;5787;5022;4063;3053;2584;2929;3734;3932;5088;6152;6537
2852;-52.4853;-27.6592;Ponte Preta;Sede Municipal;RIO GRANDE DO SUL;4592;6222;5787;5022;4063;3053;2584;2929;3734;3932;5088;6152;6537
2856;-52.051;-27.6941;Áurea;Sede Municipal;RIO GRANDE DO SUL;4575;6210;5784;5000;4042;3063;2550;2899;3698;3950;5034;6182;6484
2857;-51.9126;-27.7172;Carlos Gomes;Sede Municipal;RIO GRANDE DO SUL;4588;6226;5797;5040;4047;3056;2538;2888;3687;3945;5067;6231;6534
2859;-51.7634;-27.708;Paim Filho;Sede Municipal;RIO GRANDE DO SUL;4601;6274;5778;5022;4086;3062;2613;2903;3706;3929;5044;6251;6541
2862;-51.459;-27.6743;Barracão;Sede Municipal;RIO GRANDE DO SUL;4559;6219;5736;4966;4018;3019;2572;2885;3709;3931;4978;6181;6494
2896;-54.6662;-27.58;Porto Mauá;Sede Municipal;RIO GRANDE DO SUL;4645;6496;5967;5147;4047;3056;2495;2798;3622;4018;5188;6231;6669
2897;-54.5041;-27.5769;Novo Machado;Sede Municipal;RIO GRANDE DO SUL;4653;6504;5988;5161;4040;3076;2520;2818;3640;4016;5176;6219;6672
2899;-54.3058;-27.6287;Horizontina;Sede Municipal;RIO GRANDE DO SUL;4664;6461;6026;5166;4046;3096;2546;2853;3682;4023;5201;6225;6639
2901;-54.1079;-27.6141;Nova Candelária;Sede Municipal;RIO GRANDE DO SUL;4670;6490;5985;5148;4060;3119;2548;2881;3693;3989;5232;6229;6671
2903;-53.97;-27.5695;Humaitá;Sede Municipal;RIO GRANDE DO SUL;4665;6422;5947;5156;4067;3122;2580;2923;3694;3993;5208;6219;6650
2903;-53.9498;-27.6372;Sede Nova;Sede Municipal;RIO GRANDE DO SUL;4665;6422;5947;5156;4067;3122;2580;2923;3694;3993;5208;6219;6650
2905;-53.741;-27.6178;Braga;Sede Municipal;RIO GRANDE DO SUL;4669;6475;5942;5151;4055;3130;2581;2935;3693;4009;5183;6244;6632
2910;-53.2766;-27.6352;Jaboticaba;Sede Municipal;RIO GRANDE DO SUL;4651;6305;5910;5082;4114;3117;2548;2913;3710;3989;5181;6281;6662
2911;-53.1842;-27.5654;Novo Tiradentes;Sede Municipal;RIO GRANDE DO SUL;4654;6315;5918;5111;4125;3106;2544;2895;3705;3981;5177;6305;6664
2911;-53.1677;-27.6111;Cerro Grande;Sede Municipal;RIO GRANDE DO SUL;4654;6315;5918;5111;4125;3106;2544;2895;3705;3981;5177;6305;6664
2912;-53.0758;-27.6014;Liberato Salzano;Sede Municipal;RIO GRANDE DO SUL;4655;6338;5901;5124;4146;3114;2562;2893;3697;3974;5170;6273;6667
2914;-52.8442;-27.6144;Três Palmeiras;Sede Municipal;RIO GRANDE DO SUL;4612;6225;5809;5034;4088;3091;2600;2931;3717;3976;5128;6169;6577
2917;-52.5242;-27.5588;São Valentim;Sede Municipal;RIO GRANDE DO SUL;4598;6200;5752;5008;4104;3088;2605;2927;3752;3965;5099;6165;6514
2919;-52.3803;-27.6213;Barão de Cotegipe;Sede Municipal;RIO GRANDE DO SUL;4590;6197;5763;5000;4060;3075;2594;2945;3725;3960;5073;6208;6481
2920;-52.2701;-27.6369;Erechim;Sede Municipal;RIO GRANDE DO SUL;4590;6226;5794;4996;4053;3070;2590;2938;3714;3959;5048;6198;6501
2922;-52.092;-27.5861;Gaurama;Sede Municipal;RIO GRANDE DO SUL;4591;6263;5770;5006;4045;3066;2574;2911;3715;3969;5050;6217;6506
2922;-52.0216;-27.572;Viadutos;Sede Municipal;RIO GRANDE DO SUL;4591;6263;5770;5006;4045;3066;2574;2911;3715;3969;5050;6217;6506
2924;-51.8025;-27.633;Maximiliano de Almeida;Sede Municipal;RIO GRANDE DO SUL;4625;6317;5836;5084;4093;3072;2572;2893;3704;3957;5081;6291;6597
2926;-51.6673;-27.5671;Machadinho;Sede Municipal;RIO GRANDE DO SUL;4623;6330;5791;5043;4110;3078;2644;2908;3727;3961;5060;6246;6574
2964;-54.3582;-27.5108;Doutor Maurício Cardoso;Sede Municipal;RIO GRANDE DO SUL;4648;6448;5994;5176;4013;3088;2525;2834;3685;4001;5197;6210;6609
2966;-54.0998;-27.5004;Crissiumal;Sede Municipal;RIO GRANDE DO SUL;4662;6446;5965;5130;4039;3114;2546;2887;3691;4001;5241;6234;6652
2968;-53.9301;-27.4559;Três Passos;Sede Municipal;RIO GRANDE DO SUL;4662;6399;5932;5137;4061;3122;2582;2909;3700;4009;5220;6219;6649
2969;-53.8721;-27.5403;Bom Progresso;Sede Municipal;RIO GRANDE DO SUL;4662;6432;5929;5151;4049;3111;2560;2912;3708;4009;5213;6242;6632
2971;-53.6895;-27.4974;Miraguaí;Sede Municipal;RIO GRANDE DO SUL;4655;6445;5901;5142;4071;3119;2552;2922;3704;4005;5174;6224;6599
2972;-53.501;-27.5448;Erval Seco;Sede Municipal;RIO GRANDE DO SUL;4651;6398;5858;5134;4087;3106;2560;2901;3702;3996;5190;6256;6621
2973;-53.4031;-27.4833;Seberi;Sede Municipal;RIO GRANDE DO SUL;4651;6398;5855;5116;4081;3110;2567;2910;3713;3998;5185;6241;6638
2975;-53.2086;-27.5085;Pinhal;Sede Municipal;RIO GRANDE DO SUL;4653;6329;5908;5135;4104;3115;2541;2907;3720;3984;5179;6279;6638
2975;-53.2427;-27.4525;Cristal do Sul;Sede Municipal;RIO GRANDE DO SUL;4653;6329;5908;5135;4104;3115;2541;2907;3720;3984;5179;6279;6638
2976;-53.171;-27.4747;Rodeio Bonito;Sede Municipal;RIO GRANDE DO SUL;4651;6329;5909;5127;4110;3106;2548;2898;3717;3978;5177;6269;6649
2979;-52.896;-27.5244;Trindade do Sul;Sede Municipal;RIO GRANDE DO SUL;4618;6252;5808;5054;4099;3099;2620;2924;3740;3995;5119;6148;6560
2980;-52.7352;-27.5303;Entre Rios do Sul;Sede Municipal;RIO GRANDE DO SUL;4608;6247;5819;5042;4075;3103;2611;2921;3736;3987;5103;6130;6520
2981;-52.6;-27.509;Benjamin Constant do Sul;Sede Municipal;RIO GRANDE DO SUL;4623;6264;5786;5084;4101;3107;2623;2928;3759;3991;5114;6180;6533
2986;-52.1452;-27.5007;Três Arroios;Sede Municipal;RIO GRANDE DO SUL;4630;6314;5852;5077;4073;3083;2606;2938;3735;3980;5101;6241;6564
2988;-51.91;-27.4681;Marcelino Ramos;Sede Municipal;RIO GRANDE DO SUL;4621;6315;5811;5087;4061;3063;2554;2886;3726;3979;5089;6300;6587
3029;-54.0818;-27.4027;Tiradentes do Sul;Sede Municipal;RIO GRANDE DO SUL;4653;6426;5927;5133;4050;3116;2560;2874;3683;4010;5219;6212;6635
3030;-53.9895;-27.3607;Esperança do Sul;Sede Municipal;RIO GRANDE DO SUL;4650;6404;5902;5125;4048;3124;2566;2885;3696;4013;5218;6210;6612
3032;-53.7589;-27.3715;Tenente Portela;Sede Municipal;RIO GRANDE DO SUL;4645;6419;5901;5128;4043;3112;2565;2904;3710;4006;5179;6183;6591
3034;-53.5585;-27.36;Palmitinho;Sede Municipal;RIO GRANDE DO SUL;4654;6462;5853;5169;4080;3109;2570;2903;3719;3986;5193;6202;6596
3035;-53.4923;-27.3691;Vista Alegre;Sede Municipal;RIO GRANDE DO SUL;4650;6430;5845;5140;4073;3116;2581;2906;3732;3987;5185;6203;6597
3035;-53.4707;-27.4009;Taquaruçu do Sul;Sede Municipal;RIO GRANDE DO SUL;4650;6430;5845;5140;4073;3116;2581;2906;3732;3987;5185;6203;6597
3036;-53.3963;-27.3591;Frederico Westphalen;Sede Municipal;RIO GRANDE DO SUL;4639;6354;5856;5115;4068;3104;2547;2891;3740;3987;5176;6231;6602
3038;-53.1835;-27.3611;Ametista do Sul;Sede Municipal;RIO GRANDE DO SUL;4645;6339;5895;5148;4088;3107;2567;2890;3731;3978;5168;6219;6613
3040;-52.9153;-27.4434;Gramado dos Loureiros;Sede Municipal;RIO GRANDE DO SUL;4635;6249;5823;5120;4134;3110;2626;2917;3739;4003;5147;6181;6572
3042;-52.776;-27.3694;Nonoai;Sede Municipal;RIO GRANDE DO SUL;4628;6289;5823;5108;4091;3114;2636;2908;3766;4012;5125;6130;6535
3043;-52.6794;-27.4242;Faxinalzinho;Sede Municipal;RIO GRANDE DO SUL;4629;6273;5800;5091;4089;3113;2633;2915;3770;4012;5145;6160;6549
3044;-52.5745;-27.3931;Erval Grande;Sede Municipal;RIO GRANDE DO SUL;4614;6217;5759;5107;4082;3091;2594;2897;3754;4004;5131;6177;6555
3045;-52.4088;-27.4073;Barra do Rio Azul;Sede Municipal;RIO GRANDE DO SUL;4615;6226;5791;5105;4096;3070;2537;2891;3741;4003;5115;6243;6566
3045;-52.4542;-27.3851;Itatiba do Sul;Sede Municipal;RIO GRANDE DO SUL;4615;6226;5791;5105;4096;3070;2537;2891;3741;4003;5115;6243;6566
3047;-52.2979;-27.3983;Aratiba;Sede Municipal;RIO GRANDE DO SUL;4629;6327;5867;5139;4052;3060;2547;2872;3725;3981;5108;6264;6602
3048;-52.1471;-27.3572;Mariano Moro;Sede Municipal;RIO GRANDE DO SUL;4644;6377;5884;5146;4061;3061;2562;2882;3745;3990;5110;6279;6627
3048;-52.1222;-27.4367;Severiano de Almeida;Sede Municipal;RIO GRANDE DO SUL;4644;6377;5884;5146;4061;3061;2562;2882;3745;3990;5110;6279;6627
3091;-53.865;-27.2646;Derrubadas;Sede Municipal;RIO GRANDE DO SUL;4626;6373;5894;5139;4020;3106;2532;2861;3721;3994;5168;6141;6564
3093;-53.6978;-27.2907;Vista Gaúcha;Sede Municipal;RIO GRANDE DO SUL;4651;6475;5859;5165;4045;3092;2558;2898;3716;4000;5195;6193;6611
3095;-53.4261;-27.2796;Caiçara;Sede Municipal;RIO GRANDE DO SUL;4654;6456;5867;5169;4059;3113;2577;2906;3735;3997;5185;6199;6584
3099;-53.0346;-27.2506;Alpestre;Sede Municipal;RIO GRANDE DO SUL;4646;6296;5844;5169;4084;3111;2612;2889;3743;4018;5172;6204;6611
3099;-53.058;-27.3302;Planalto;Sede Municipal;RIO GRANDE DO SUL;4646;6296;5844;5169;4084;3111;2612;2889;3743;4018;5172;6204;6611
3101;-52.8422;-27.2978;Rio dos Índios;Sede Municipal;RIO GRANDE DO SUL;4658;6296;5872;5169;4123;3131;2636;2925;3779;4026;5169;6186;6588
3149;-53.7113;-27.1931;Barra do Guarita;Sede Municipal;RIO GRANDE DO SUL;4625;6407;5867;5152;4025;3093;2515;2857;3711;3998;5166;6158;6552
3150;-53.6085;-27.2114;Pinheirinho do Vale;Sede Municipal;RIO GRANDE DO SUL;4642;6456;5859;5155;4036;3101;2530;2866;3725;4003;5186;6200;6589
3152;-53.4027;-27.1612;Vicente Dutra;Sede Municipal;RIO GRANDE DO SUL;4640;6429;5857;5155;4041;3096;2541;2857;3731;4010;5172;6201;6588
3154;-53.2548;-27.1955;Iraí;Sede Municipal;RIO GRANDE DO SUL;4645;6368;5881;5182;4062;3092;2569;2870;3727;4000;5169;6199;6618
